{
  "metadata": {
    "source": "Sby Bis Surabaya",
    "kota": "Surabaya"
  },
  "routes": [
    {
      "route_id": "FD1",
      "route_name": "Terminal Benowo - Tunjungan",
      "segment_type": "feeder",
      "directions": [
        {
          "direction_id": "FD1_A",
          "arah": "Terminal Benowo",
          "jumlah_pemberhentian": 21,
          "waktu_perjalanan_mnt": 38,
          "stops": [
            {
              "stop_sequence": 1,
              "stop_name": "Halte Tunjungan",
              "stop_name_normalized": "halte tunjungan",
              "is_terminal": true,
              "notes": "",
              "lat": -7.2598045,
              "lon": 112.7392244,
              "geocode_score": 75,
              "geocode_type": "medium",
              "matched_osm_name": "Tunjungan"
            },
            {
              "stop_sequence": 2,
              "stop_name": "Halte Embong Malang",
              "stop_name_normalized": "halte embong malang",
              "is_terminal": false,
              "notes": "",
              "lat": -7.2589946,
              "lon": 112.7341252,
              "geocode_score": 100,
              "geocode_type": "exact",
              "matched_osm_name": "Halte Embong Malang"
            },
            {
              "stop_sequence": 3,
              "stop_name": "Embong Malang 2",
              "stop_name_normalized": "embong malang 2",
              "is_terminal": false,
              "notes": "",
              "lat": -7.260373,
              "lon": 112.7374193,
              "geocode_score": 93,
              "geocode_type": "high",
              "matched_osm_name": "Embong Malang"
            },
            {
              "stop_sequence": 4,
              "stop_name": "Kedung Doro B",
              "stop_name_normalized": "kedung doro b",
              "is_terminal": false,
              "notes": "",
              "lat": -7.2613256,
              "lon": 112.732107,
              "geocode_type": "high",
              "matched_osm_name": "Kedungdoro b"
            },
            {
              "stop_sequence": 5,
              "stop_name": "Wonorejo B",
              "stop_name_normalized": "wonorejo b",
              "is_terminal": false,
              "notes": "",
              "lat": -7.2674406,
              "lon": 112.7296597,
              "geocode_score": 100,
              "geocode_type": "exact",
              "matched_osm_name": "Wonorejo B"
            },
            {
              "stop_sequence": 6,
              "stop_name": "Kupang Krajan B",
              "stop_name_normalized": "kupang krajan b",
              "is_terminal": false,
              "notes": "",
              "lat": -7.2702417,
              "lon": 112.728667,
              "geocode_score": 100,
              "geocode_type": "exact",
              "matched_osm_name": "Kupang Krajan B"
            },
            {
              "stop_sequence": 7,
              "stop_name": "Pasar Kembang B",
              "stop_name_normalized": "pasar kembang b",
              "is_terminal": false,
              "notes": "",
              "lat": -7.2728705,
              "lon": 112.727655,
              "geocode_score": 100,
              "geocode_type": "exact",
              "matched_osm_name": "Pasar Kembang B"
            },
            {
              "stop_sequence": 8,
              "stop_name": "Butulan B",
              "stop_name_normalized": "butulan b",
              "is_terminal": false,
              "notes": "",
              "lat": -7.2718045,
              "lon": 112.7231587,
              "geocode_score": 100,
              "geocode_type": "exact",
              "matched_osm_name": "Butulan B"
            },
            {
              "stop_sequence": 9,
              "stop_name": "Simo Katrungan Kidul B",
              "stop_name_normalized": "simo katrungan kidul b",
              "is_terminal": false,
              "notes": "",
              "lat": -7.269061,
              "lon": 112.7152457,
              "geocode_score": 100,
              "geocode_type": "exact",
              "matched_osm_name": "Simo Katrungan Kidul B"
            },
            {
              "stop_sequence": 10,
              "stop_name": "Simo Jawar B",
              "stop_name_normalized": "simo jawar b",
              "is_terminal": false,
              "notes": "",
              "lat": -7.2669156,
              "lon": 112.7015028,
              "geocode_score": 100,
              "geocode_type": "exact",
              "matched_osm_name": "Simo Jawar B"
            },
            {
              "stop_sequence": 11,
              "stop_name": "Samsat Tandes 1",
              "stop_name_normalized": "samsat tandes 1",
              "is_terminal": false,
              "notes": "",
              "lat": -7.2597551,
              "lon": 112.6878291,
              "geocode_score": 100,
              "geocode_type": "exact",
              "matched_osm_name": "Samsat Tandes 1"
            },
            {
              "stop_sequence": 12,
              "stop_name": "Karangpoh B",
              "stop_name_normalized": "karangpoh b",
              "is_terminal": false,
              "notes": "",
              "lat": -7.2590521,
              "lon": 112.6830899,
              "geocode_score": 100,
              "geocode_type": "exact",
              "matched_osm_name": "Karangpoh B"
            },
            {
              "stop_sequence": 13,
              "stop_name": "Bibis B",
              "stop_name_normalized": "bibis b",
              "is_terminal": false,
              "notes": "",
              "lat": -7.2585881,
              "lon": 112.6776964,
              "geocode_score": 100,
              "geocode_type": "exact",
              "matched_osm_name": "Bibis B"
            },
            {
              "stop_sequence": 14,
              "stop_name": "Manukan Kulon B",
              "stop_name_normalized": "manukan kulon b",
              "is_terminal": false,
              "notes": "",
              "lat": -7.2559199,
              "lon": 112.6633652,
              "geocode_score": 100,
              "geocode_type": "exact",
              "matched_osm_name": "Manukan Kulon B"
            },
            {
              "stop_sequence": 15,
              "stop_name": "Kantor Kelurahan Banjar Sugihan B",
              "stop_name_normalized": "kantor kelurahan banjar sugihan b",
              "is_terminal": false,
              "notes": "",
              "lat": -7.253898,
              "lon": 112.6576273,
              "geocode_score": 88,
              "geocode_type": "high",
              "matched_osm_name": "Kelurahan Banjar Sugihan B"
            },
            {
              "stop_sequence": 16,
              "stop_name": "Kantor Kelurahan Kandangan B",
              "stop_name_normalized": "kantor kelurahan kandangan b",
              "is_terminal": false,
              "notes": "",
              "lat": -7.2526091,
              "lon": 112.6526444,
              "geocode_score": 86,
              "geocode_type": "high",
              "matched_osm_name": "Kelurahan Kandangan B"
            },
            {
              "stop_sequence": 17,
              "stop_name": "Polsek Benowo B",
              "stop_name_normalized": "polsek benowo b",
              "is_terminal": false,
              "notes": "",
              "lat": -7.2475972,
              "lon": 112.6387347,
              "geocode_score": 100,
              "geocode_type": "exact",
              "matched_osm_name": "Polsek Benowo B"
            },
            {
              "stop_sequence": 18,
              "stop_name": "Universitas Wijaya Putra B",
              "stop_name_normalized": "universitas wijaya putra b",
              "is_terminal": false,
              "notes": "",
              "lat": -7.2439662,
              "lon": 112.6329863,
              "geocode_score": 100,
              "geocode_type": "exact",
              "matched_osm_name": "Universitas Wijaya Putra B"
            },
            {
              "stop_sequence": 19,
              "stop_name": "Kantor Kecamatan Pakal B",
              "stop_name_normalized": "kantor kecamatan pakal b",
              "is_terminal": false,
              "notes": "",
              "lat": -7.2405177,
              "lon": 112.6250991,
              "geocode_score": 83,
              "geocode_type": "medium",
              "matched_osm_name": "Kecamatan Pakal B"
            },
            {
              "stop_sequence": 20,
              "stop_name": "Stasiun Benowo B",
              "stop_name_normalized": "stasiun benowo b",
              "is_terminal": false,
              "notes": "",
              "lat": -7.2349286,
              "lon": 112.6147061,
              "geocode_score": 100,
              "geocode_type": "exact",
              "matched_osm_name": "Stasiun Benowo B"
            },
            {
              "stop_sequence": 21,
              "stop_name": "Terminal Benowo",
              "stop_name_normalized": "terminal benowo",
              "is_terminal": true,
              "notes": "",
              "lat": -7.2357374,
              "lon": 112.6078944,
              "geocode_score": 100,
              "geocode_type": "exact",
              "matched_osm_name": "Terminal Benowo"
            }
          ]
        },
        {
          "direction_id": "FD1_B",
          "arah": "Tunjungan",
          "jumlah_pemberhentian": 34,
          "waktu_perjalanan_mnt": 48,
          "stops": [
            {
              "stop_sequence": 1,
              "stop_name": "Terminal Benowo",
              "stop_name_normalized": "terminal benowo",
              "is_terminal": true,
              "notes": "",
              "lat": -7.2357374,
              "lon": 112.6078944,
              "geocode_score": 100,
              "geocode_type": "exact",
              "matched_osm_name": "Terminal Benowo"
            },
            {
              "stop_sequence": 2,
              "stop_name": "Singgapur A",
              "stop_name_normalized": "singgapur a",
              "is_terminal": false,
              "notes": "",
              "lat": -7.2324025,
              "lon": 112.6092103,
              "geocode_score": 100,
              "geocode_type": "exact",
              "matched_osm_name": "Singgapur A"
            },
            {
              "stop_sequence": 3,
              "stop_name": "Sumberejo A",
              "stop_name_normalized": "sumberejo a",
              "is_terminal": false,
              "notes": "",
              "lat": -7.230315,
              "lon": 112.6096329,
              "geocode_type": "high",
              "matched_osm_name": "Raya Sumberejo A"
            },
            {
              "stop_sequence": 4,
              "stop_name": "Sumberejo Makmur 1 A",
              "stop_name_normalized": "sumberejo makmur 1 a",
              "is_terminal": false,
              "notes": "",
              "lat": -7.2292231,
              "lon": 112.6085257,
              "geocode_score": 97,
              "geocode_type": "high",
              "matched_osm_name": "Sumberejo Makmur 1A"
            },
            {
              "stop_sequence": 5,
              "stop_name": "Sumberejo Makmur 2 A",
              "stop_name_normalized": "sumberejo makmur 2 a",
              "is_terminal": false,
              "notes": "",
              "lat": -7.2279513,
              "lon": 112.6072675,
              "geocode_score": 97,
              "geocode_type": "high",
              "matched_osm_name": "Sumberejo Makmur 2A"
            },
            {
              "stop_sequence": 6,
              "stop_name": "Puskesmas Sumberejo A",
              "stop_name_normalized": "puskesmas sumberejo a",
              "is_terminal": false,
              "notes": "",
              "lat": -7.2268955,
              "lon": 112.6061981,
              "geocode_score": 100,
              "geocode_type": "exact",
              "matched_osm_name": "Puskesmas Sumberejo A"
            },
            {
              "stop_sequence": 7,
              "stop_name": "Griya Surabaya Asri",
              "stop_name_normalized": "griya surabaya asri",
              "is_terminal": false,
              "notes": "",
              "lat": -7.224529,
              "lon": 112.6038783,
              "geocode_score": 100,
              "geocode_type": "exact",
              "matched_osm_name": "Griya Surabaya Asri"
            },
            {
              "stop_sequence": 8,
              "stop_name": "Puskesmas Sumberejo B",
              "stop_name_normalized": "puskesmas sumberejo b",
              "is_terminal": false,
              "notes": "",
              "lat": -7.2267464,
              "lon": 112.6061034,
              "geocode_score": 100,
              "geocode_type": "exact",
              "matched_osm_name": "Puskesmas Sumberejo B"
            },
            {
              "stop_sequence": 9,
              "stop_name": "Sumberejo Makmur 2 B",
              "stop_name_normalized": "sumberejo makmur 2 b",
              "is_terminal": false,
              "notes": "",
              "lat": -7.2279156,
              "lon": 112.6072989,
              "geocode_score": 97,
              "geocode_type": "high",
              "matched_osm_name": "Sumberejo Makmur 2B"
            },
            {
              "stop_sequence": 10,
              "stop_name": "Sumberejo Makmur 1 B",
              "stop_name_normalized": "sumberejo makmur 1 b",
              "is_terminal": false,
              "notes": "",
              "lat": -7.2291819,
              "lon": 112.6085773,
              "geocode_score": 97,
              "geocode_type": "high",
              "matched_osm_name": "Sumberejo Makmur 1B"
            },
            {
              "stop_sequence": 11,
              "stop_name": "Sumberejo B",
              "stop_name_normalized": "sumberejo b",
              "is_terminal": false,
              "notes": "",
              "lat": -7.2303724,
              "lon": 112.6097644,
              "geocode_score": 81,
              "geocode_type": "medium",
              "matched_osm_name": "Raya Sumberejo B"
            },
            {
              "stop_sequence": 12,
              "stop_name": "Singgapur B",
              "stop_name_normalized": "singgapur b",
              "is_terminal": false,
              "notes": "",
              "lat": -7.2324399,
              "lon": 112.6092846,
              "geocode_score": 100,
              "geocode_type": "exact",
              "matched_osm_name": "Singgapur B"
            },
            {
              "stop_sequence": 13,
              "stop_name": "Stasiun Benowo A",
              "stop_name_normalized": "stasiun benowo a",
              "is_terminal": false,
              "notes": "",
              "lat": -7.234831,
              "lon": 112.6147498,
              "geocode_score": 100,
              "geocode_type": "exact",
              "matched_osm_name": "Stasiun Benowo A"
            },
            {
              "stop_sequence": 14,
              "stop_name": "Kantor Kecamatan Pakal A",
              "stop_name_normalized": "kantor kecamatan pakal a",
              "is_terminal": false,
              "notes": "",
              "lat": -7.240446,
              "lon": 112.6251216,
              "geocode_score": 83,
              "geocode_type": "medium",
              "matched_osm_name": "Kecamatan Pakal A"
            },
            {
              "stop_sequence": 15,
              "stop_name": "Universitas Wijaya Putra A",
              "stop_name_normalized": "universitas wijaya putra a",
              "is_terminal": false,
              "notes": "",
              "lat": -7.2436962,
              "lon": 112.6328921,
              "geocode_score": 100,
              "geocode_type": "exact",
              "matched_osm_name": "Universitas Wijaya Putra A"
            },
            {
              "stop_sequence": 16,
              "stop_name": "Polsek Benowo A",
              "stop_name_normalized": "polsek benowo a",
              "is_terminal": false,
              "notes": "",
              "lat": -7.2473619,
              "lon": 112.6384064,
              "geocode_score": 100,
              "geocode_type": "exact",
              "matched_osm_name": "Polsek Benowo A"
            },
            {
              "stop_sequence": 17,
              "stop_name": "Kantor Kelurahan Kandangan A",
              "stop_name_normalized": "kantor kelurahan kandangan a",
              "is_terminal": false,
              "notes": "",
              "lat": -7.2524374,
              "lon": 112.6528119,
              "geocode_score": 86,
              "geocode_type": "high",
              "matched_osm_name": "Kelurahan Kandangan A"
            },
            {
              "stop_sequence": 18,
              "stop_name": "Kantor Kelurahan Banjar Sugihan A",
              "stop_name_normalized": "kantor kelurahan banjar sugihan a",
              "is_terminal": false,
              "notes": "",
              "lat": -7.253577,
              "lon": 112.6572858,
              "geocode_score": 88,
              "geocode_type": "high",
              "matched_osm_name": "Kelurahan Banjar Sugihan A"
            },
            {
              "stop_sequence": 19,
              "stop_name": "Manukan Kulon A",
              "stop_name_normalized": "manukan kulon a",
              "is_terminal": false,
              "notes": "",
              "lat": -7.255734,
              "lon": 112.6634111,
              "geocode_score": 100,
              "geocode_type": "exact",
              "matched_osm_name": "Manukan Kulon A"
            },
            {
              "stop_sequence": 20,
              "stop_name": "Bibis A",
              "stop_name_normalized": "bibis a",
              "is_terminal": false,
              "notes": "",
              "lat": -7.2583494,
              "lon": 112.6775804,
              "geocode_score": 100,
              "geocode_type": "exact",
              "matched_osm_name": "Bibis A"
            },
            {
              "stop_sequence": 21,
              "stop_name": "Karangpoh A",
              "stop_name_normalized": "karangpoh a",
              "is_terminal": false,
              "notes": "",
              "lat": -7.2588082,
              "lon": 112.6829151,
              "geocode_score": 100,
              "geocode_type": "exact",
              "matched_osm_name": "Karangpoh A"
            },
            {
              "stop_sequence": 22,
              "stop_name": "Samsat Tandes 2",
              "stop_name_normalized": "samsat tandes 2",
              "is_terminal": false,
              "notes": "",
              "lat": -7.2594772,
              "lon": 112.6877589,
              "geocode_score": 100,
              "geocode_type": "exact",
              "matched_osm_name": "Samsat Tandes 2"
            },
            {
              "stop_sequence": 23,
              "stop_name": "Tanjungsari A",
              "stop_name_normalized": "tanjungsari a",
              "is_terminal": false,
              "notes": "",
              "lat": -7.2617334,
              "lon": 112.6936953,
              "geocode_score": 100,
              "geocode_type": "exact",
              "matched_osm_name": "Tanjungsari A"
            },
            {
              "stop_sequence": 24,
              "stop_name": "Simo Jawar A",
              "stop_name_normalized": "simo jawar a",
              "is_terminal": false,
              "notes": "",
              "lat": -7.266733,
              "lon": 112.701704,
              "geocode_score": 100,
              "geocode_type": "exact",
              "matched_osm_name": "Simo Jawar A"
            },
            {
              "stop_sequence": 25,
              "stop_name": "Simo Katrungan Kidul A",
              "stop_name_normalized": "simo katrungan kidul a",
              "is_terminal": false,
              "notes": "",
              "lat": -7.2688509,
              "lon": 112.7153141,
              "geocode_score": 100,
              "geocode_type": "exact",
              "matched_osm_name": "Simo Katrungan Kidul A"
            },
            {
              "stop_sequence": 26,
              "stop_name": "Butulan A",
              "stop_name_normalized": "butulan a",
              "is_terminal": false,
              "notes": "",
              "lat": -7.271677,
              "lon": 112.723309,
              "geocode_score": 100,
              "geocode_type": "exact",
              "matched_osm_name": "Butulan A"
            },
            {
              "stop_sequence": 27,
              "stop_name": "Pasar Kembang A",
              "stop_name_normalized": "pasar kembang a",
              "is_terminal": false,
              "notes": "",
              "lat": -7.2724027,
              "lon": 112.727527,
              "geocode_score": 100,
              "geocode_type": "exact",
              "matched_osm_name": "Pasar Kembang A"
            },
            {
              "stop_sequence": 28,
              "stop_name": "Kupang Krajan A",
              "stop_name_normalized": "kupang krajan a",
              "is_terminal": false,
              "notes": "",
              "lat": -7.2699809,
              "lon": 112.7285124,
              "geocode_score": 100,
              "geocode_type": "exact",
              "matched_osm_name": "Kupang Krajan A"
            },
            {
              "stop_sequence": 29,
              "stop_name": "Wonorejo A",
              "stop_name_normalized": "wonorejo a",
              "is_terminal": false,
              "notes": "",
              "lat": -7.2672753,
              "lon": 112.7295161,
              "geocode_score": 100,
              "geocode_type": "exact",
              "matched_osm_name": "Wonorejo A"
            },
            {
              "stop_sequence": 30,
              "stop_name": "Kedung Doro A",
              "stop_name_normalized": "kedung doro a",
              "is_terminal": false,
              "notes": "",
              "lat": -7.260933,
              "lon": 112.732032,
              "geocode_type": "high",
              "matched_osm_name": "Kedungdoro A"
            },
            {
              "stop_sequence": 31,
              "stop_name": "Sindoro",
              "stop_name_normalized": "sindoro",
              "is_terminal": false,
              "notes": "",
              "lat": -7.2575982,
              "lon": 112.7335436,
              "geocode_score": 88,
              "geocode_type": "high",
              "matched_osm_name": "Sindoro A"
            },
            {
              "stop_sequence": 32,
              "stop_name": "Smpn 3",
              "stop_name_normalized": "smpn 3",
              "is_terminal": false,
              "notes": "",
              "lat": -7.2559919,
              "lon": 112.7359353,
              "geocode_score": 100,
              "geocode_type": "exact",
              "matched_osm_name": "SMPN 3"
            },
            {
              "stop_sequence": 33,
              "stop_name": "Halte Siola",
              "stop_name_normalized": "halte siola",
              "is_terminal": false,
              "notes": "",
              "lat": -7.2571601,
              "lon": 112.7377436,
              "geocode_type": "high",
              "matched_osm_name": "Siola"
            },
            {
              "stop_sequence": 34,
              "stop_name": "Halte Tunjungan",
              "stop_name_normalized": "halte tunjungan",
              "is_terminal": true,
              "notes": "",
              "lat": -7.2598045,
              "lon": 112.7392244,
              "geocode_score": 75,
              "geocode_type": "medium",
              "matched_osm_name": "Tunjungan"
            }
          ]
        }
      ]
    },
    {
      "route_id": "FD2",
      "route_name": "Mayjend Sungkono - Balai Kota",
      "segment_type": "feeder",
      "directions": [
        {
          "direction_id": "FD2_A",
          "arah": "Balai Kota",
          "jumlah_pemberhentian": 32,
          "waktu_perjalanan_mnt": 23,
          "stops": [
            {
              "stop_sequence": 1,
              "stop_name": "Park & Ride Mayjend Sungkono",
              "stop_name_normalized": "park & ride mayjend sungkono",
              "is_terminal": true,
              "notes": "",
              "lat": -7.2907844,
              "lon": 112.7150546,
              "geocode_type": "high",
              "matched_osm_name": "PNR Mayjen Sungkono 2"
            },
            {
              "stop_sequence": 2,
              "stop_name": "Halte Darmo Park 1",
              "stop_name_normalized": "halte darmo park 1",
              "is_terminal": false,
              "notes": "",
              "lat": -7.2913735,
              "lon": 112.7174397,
              "geocode_score": 60,
              "geocode_type": "high",
              "matched_osm_name": "Darmo Park 1"
            },
            {
              "stop_sequence": 3,
              "stop_name": "Bintang Diponggo A",
              "stop_name_normalized": "bintang diponggo a",
              "is_terminal": false,
              "notes": "",
              "lat": -7.2900567,
              "lon": 112.7189256,
              "geocode_score": 100,
              "geocode_type": "exact",
              "matched_osm_name": "Bintang Diponggo A"
            },
            {
              "stop_sequence": 4,
              "stop_name": "Smp Gema 45 A",
              "stop_name_normalized": "smp gema 45 a",
              "is_terminal": false,
              "notes": "",
              "lat": -7.2900269,
              "lon": 112.72183,
              "geocode_score": 100,
              "geocode_type": "exact",
              "matched_osm_name": "SMP Gema 45 A"
            },
            {
              "stop_sequence": 5,
              "stop_name": "Pakis Tirtosari A",
              "stop_name_normalized": "pakis tirtosari a",
              "is_terminal": false,
              "notes": "",
              "lat": -7.2899951,
              "lon": 112.7233595,
              "geocode_score": 94,
              "geocode_type": "high",
              "matched_osm_name": "Pakis Tirtosari B"
            },
            {
              "stop_sequence": 6,
              "stop_name": "Wonokitri Besar A",
              "stop_name_normalized": "wonokitri besar a",
              "is_terminal": false,
              "notes": "",
              "lat": -7.2895116,
              "lon": 112.726841,
              "geocode_score": 100,
              "geocode_type": "exact",
              "matched_osm_name": "Wonokitri Besar A"
            },
            {
              "stop_sequence": 7,
              "stop_name": "Pakis Gunung A",
              "stop_name_normalized": "pakis gunung a",
              "is_terminal": false,
              "notes": "",
              "lat": -7.2863355,
              "lon": 112.7292556,
              "geocode_score": 100,
              "geocode_type": "exact",
              "matched_osm_name": "Pakis Gunung A"
            },
            {
              "stop_sequence": 8,
              "stop_name": "Pasar Pakis A",
              "stop_name_normalized": "pasar pakis a",
              "is_terminal": false,
              "notes": "",
              "lat": -7.2846473,
              "lon": 112.730637,
              "geocode_score": 100,
              "geocode_type": "exact",
              "matched_osm_name": "Pasar Pakis A"
            },
            {
              "stop_sequence": 9,
              "stop_name": "Prapanca A",
              "stop_name_normalized": "prapanca a",
              "is_terminal": false,
              "notes": "",
              "lat": -7.283804,
              "lon": 112.7317013,
              "geocode_score": 100,
              "geocode_type": "exact",
              "matched_osm_name": "Prapanca A"
            },
            {
              "stop_sequence": 10,
              "stop_name": "Amir Hamzah A",
              "stop_name_normalized": "amir hamzah a",
              "is_terminal": false,
              "notes": "",
              "lat": -7.2816779,
              "lon": 112.7306679,
              "geocode_score": 100,
              "geocode_type": "exact",
              "matched_osm_name": "Amir Hamzah A"
            },
            {
              "stop_sequence": 11,
              "stop_name": "Khairil Anwar",
              "stop_name_normalized": "khairil anwar",
              "is_terminal": false,
              "notes": "",
              "lat": -7.2809713,
              "lon": 112.7308974,
              "geocode_score": 100,
              "geocode_type": "exact",
              "matched_osm_name": "Khairil Anwar"
            },
            {
              "stop_sequence": 12,
              "stop_name": "Bank Danamon Diponegoro",
              "stop_name_normalized": "bank danamon diponegoro",
              "is_terminal": false,
              "notes": "",
              "lat": -7.2805816,
              "lon": 112.7315027,
              "geocode_score": 100,
              "geocode_type": "exact",
              "matched_osm_name": "Bank Danamon Diponegoro"
            },
            {
              "stop_sequence": 13,
              "stop_name": "W R. Supratman A",
              "stop_name_normalized": "w r supratman a",
              "is_terminal": false,
              "notes": "",
              "lat": -7.2797517,
              "lon": 112.7344228,
              "geocode_score": 90,
              "geocode_type": "high",
              "matched_osm_name": "WR Supratman A"
            },
            {
              "stop_sequence": 14,
              "stop_name": "Imam Bonjol",
              "stop_name_normalized": "imam bonjol",
              "is_terminal": false,
              "notes": "",
              "lat": -7.2787923,
              "lon": 112.7355541,
              "geocode_score": 100,
              "geocode_type": "exact",
              "matched_osm_name": "Imam Bonjol"
            },
            {
              "stop_sequence": 15,
              "stop_name": "Teuku Umar A",
              "stop_name_normalized": "teuku umar a",
              "is_terminal": false,
              "notes": "",
              "lat": -7.2792636,
              "lon": 112.7383299,
              "geocode_score": 100,
              "geocode_type": "exact",
              "matched_osm_name": "Teuku Umar A"
            },
            {
              "stop_sequence": 16,
              "stop_name": "Sawunggaling",
              "stop_name_normalized": "sawunggaling",
              "is_terminal": false,
              "notes": "",
              "lat": -7.2789033,
              "lon": 112.7398738,
              "geocode_score": 92,
              "geocode_type": "high",
              "matched_osm_name": "Sawunggaling A"
            },
            {
              "stop_sequence": 17,
              "stop_name": "Halte Pandegiling 1",
              "stop_name_normalized": "halte pandegiling 1",
              "is_terminal": false,
              "notes": "",
              "lat": -7.2778697,
              "lon": 112.7410512,
              "geocode_type": "high",
              "matched_osm_name": "Pandegiling"
            },
            {
              "stop_sequence": 18,
              "stop_name": "Urip Sumoharjo 1",
              "stop_name_normalized": "urip sumoharjo 1",
              "is_terminal": false,
              "notes": "",
              "lat": -7.2740239,
              "lon": 112.7419307,
              "geocode_score": 100,
              "geocode_type": "exact",
              "matched_osm_name": "Urip Sumoharjo 1"
            },
            {
              "stop_sequence": 19,
              "stop_name": "Halte Basuki Rahmat",
              "stop_name_normalized": "halte basuki rahmat",
              "is_terminal": false,
              "notes": "",
              "lat": -7.2718007,
              "lon": 112.7416187,
              "geocode_type": "high",
              "matched_osm_name": "Basra"
            },
            {
              "stop_sequence": 20,
              "stop_name": "Basuki Rahmat 2",
              "stop_name_normalized": "basuki rahmat 2",
              "is_terminal": false,
              "notes": "",
              "lat": -7.2682801,
              "lon": 112.7412753,
              "geocode_type": "high",
              "matched_osm_name": "Basra 2"
            },
            {
              "stop_sequence": 21,
              "stop_name": "Embong Wungu",
              "stop_name_normalized": "embong wungu",
              "is_terminal": false,
              "notes": "",
              "lat": -7.2653644,
              "lon": 112.7413498,
              "geocode_score": 100,
              "geocode_type": "exact",
              "matched_osm_name": "Embong Wungu"
            },
            {
              "stop_sequence": 22,
              "stop_name": "Taman Apsari",
              "stop_name_normalized": "taman apsari",
              "is_terminal": false,
              "notes": "",
              "lat": -7.2640694,
              "lon": 112.7423365,
              "geocode_score": 100,
              "geocode_type": "exact",
              "matched_osm_name": "Taman Apsari"
            },
            {
              "stop_sequence": 23,
              "stop_name": "Gubernur Suryo",
              "stop_name_normalized": "gubernur suryo",
              "is_terminal": false,
              "notes": "",
              "lat": -7.2638268,
              "lon": 112.744101,
              "geocode_score": 100,
              "geocode_type": "exact",
              "matched_osm_name": "Gubernur Suryo"
            },
            {
              "stop_sequence": 24,
              "stop_name": "Halte Panglima Sudirman",
              "stop_name_normalized": "halte panglima sudirman",
              "is_terminal": false,
              "notes": "",
              "lat": -7.2663587,
              "lon": 112.7450297,
              "geocode_type": "high",
              "matched_osm_name": "Pangsud"
            },
            {
              "stop_sequence": 25,
              "stop_name": "Bambu Runcing",
              "stop_name_normalized": "bambu runcing",
              "is_terminal": false,
              "notes": "",
              "lat": -7.2677393,
              "lon": 112.7444085,
              "geocode_type": "high",
              "matched_osm_name": "Bambu Runcing"
            },
            {
              "stop_sequence": 26,
              "stop_name": "Pmi",
              "stop_name_normalized": "pmi",
              "is_terminal": false,
              "notes": "",
              "lat": -7.2682029,
              "lon": 112.745687,
              "geocode_score": 100,
              "geocode_type": "exact",
              "matched_osm_name": "PMI"
            },
            {
              "stop_sequence": 27,
              "stop_name": "Kayoon 1 A",
              "stop_name_normalized": "kayoon 1 a",
              "is_terminal": false,
              "notes": "",
              "lat": -7.2685491,
              "lon": 112.7480708,
              "geocode_score": 95,
              "geocode_type": "high",
              "matched_osm_name": "Kayoon 1A"
            },
            {
              "stop_sequence": 28,
              "stop_name": "Kayoon 2 A",
              "stop_name_normalized": "kayoon 2 a",
              "is_terminal": false,
              "notes": "",
              "lat": -7.2674757,
              "lon": 112.7491601,
              "geocode_score": 95,
              "geocode_type": "high",
              "matched_osm_name": "Kayoon 2A"
            },
            {
              "stop_sequence": 29,
              "stop_name": "Monkasel",
              "stop_name_normalized": "monkasel",
              "is_terminal": false,
              "notes": "",
              "lat": -7.2659272,
              "lon": 112.7494093,
              "geocode_score": 100,
              "geocode_type": "exact",
              "matched_osm_name": "Monkasel"
            },
            {
              "stop_sequence": 30,
              "stop_name": "Halte Pemuda",
              "stop_name_normalized": "halte pemuda",
              "is_terminal": false,
              "notes": "",
              "lat": -7.2652576,
              "lon": 112.747537,
              "geocode_score": 67,
              "geocode_type": "medium",
              "matched_osm_name": "Pemuda"
            },
            {
              "stop_sequence": 31,
              "stop_name": "Yos Sudarso",
              "stop_name_normalized": "yos sudarso",
              "is_terminal": false,
              "notes": "",
              "lat": -7.2633045,
              "lon": 112.7459016,
              "geocode_score": 100,
              "geocode_type": "exact",
              "matched_osm_name": "Yos Sudarso"
            },
            {
              "stop_sequence": 32,
              "stop_name": "Halte Balai Kota",
              "stop_name_normalized": "halte balai kota",
              "is_terminal": true,
              "notes": "",
              "lat": -7.2609716,
              "lon": 112.7478416,
              "geocode_score": 72,
              "geocode_type": "medium",
              "matched_osm_name": "Balaikota"
            }
          ]
        },
        {
          "direction_id": "FD2_B",
          "arah": "Park And Ride Mayjend Sungkono",
          "jumlah_pemberhentian": 28,
          "waktu_perjalanan_mnt": 21,
          "stops": [
            {
              "stop_sequence": 1,
              "stop_name": "Halte Balai Kota",
              "stop_name_normalized": "halte balai kota",
              "is_terminal": true,
              "notes": "",
              "lat": -7.2609716,
              "lon": 112.7478416,
              "geocode_score": 72,
              "geocode_type": "medium",
              "matched_osm_name": "Balaikota"
            },
            {
              "stop_sequence": 2,
              "stop_name": "Slamet",
              "stop_name_normalized": "slamet",
              "is_terminal": false,
              "notes": "",
              "lat": -7.2619614,
              "lon": 112.7495828,
              "geocode_score": 100,
              "geocode_type": "exact",
              "matched_osm_name": "Slamet"
            },
            {
              "stop_sequence": 3,
              "stop_name": "Kayoon 2b",
              "stop_name_normalized": "kayoon 2b",
              "is_terminal": false,
              "notes": "",
              "lat": -7.2675648,
              "lon": 112.7492972,
              "geocode_score": 100,
              "geocode_type": "exact",
              "matched_osm_name": "Kayoon 2B"
            },
            {
              "stop_sequence": 4,
              "stop_name": "Kayoon 1 B",
              "stop_name_normalized": "kayoon 1 b",
              "is_terminal": false,
              "notes": "",
              "lat": -7.2687586,
              "lon": 112.7480503,
              "geocode_score": 95,
              "geocode_type": "high",
              "matched_osm_name": "Kayoon 1B"
            },
            {
              "stop_sequence": 5,
              "stop_name": "Embong Kemiri",
              "stop_name_normalized": "embong kemiri",
              "is_terminal": false,
              "notes": "",
              "lat": -7.2693299,
              "lon": 112.7451274,
              "geocode_score": 100,
              "geocode_type": "exact",
              "matched_osm_name": "Embong Kemiri"
            },
            {
              "stop_sequence": 6,
              "stop_name": "Halte Sono Kembang",
              "stop_name_normalized": "halte sono kembang",
              "is_terminal": false,
              "notes": "",
              "lat": -7.2724027,
              "lon": 112.727527,
              "geocode_score": 67,
              "geocode_type": "medium",
              "matched_osm_name": "Pasar Kembang A"
            },
            {
              "stop_sequence": 7,
              "stop_name": "Sono Kembang 2",
              "stop_name_normalized": "sono kembang 2",
              "is_terminal": false,
              "notes": "",
              "lat": -7.2713169,
              "lon": 112.743161,
              "geocode_type": "high",
              "matched_osm_name": "Sonokembang 2"
            },
            {
              "stop_sequence": 8,
              "stop_name": "Urip Sumoharjo 2",
              "stop_name_normalized": "urip sumoharjo 2",
              "is_terminal": false,
              "notes": "",
              "lat": -7.2740799,
              "lon": 112.742127,
              "geocode_score": 100,
              "geocode_type": "exact",
              "matched_osm_name": "Urip Sumoharjo 2"
            },
            {
              "stop_sequence": 9,
              "stop_name": "Halte Pandegiling 2",
              "stop_name_normalized": "halte pandegiling 2",
              "is_terminal": false,
              "notes": "",
              "lat": -7.2779533,
              "lon": 112.7413279,
              "geocode_score": 81,
              "geocode_type": "medium",
              "matched_osm_name": "Pandegiling 2"
            },
            {
              "stop_sequence": 10,
              "stop_name": "Kartini",
              "stop_name_normalized": "kartini",
              "is_terminal": false,
              "notes": "",
              "lat": -7.2797422,
              "lon": 112.7400733,
              "geocode_score": 82,
              "geocode_type": "medium",
              "matched_osm_name": "RA Kartini"
            },
            {
              "stop_sequence": 11,
              "stop_name": "Teuku Umar B",
              "stop_name_normalized": "teuku umar b",
              "is_terminal": false,
              "notes": "",
              "lat": -7.2793803,
              "lon": 112.7380495,
              "geocode_score": 100,
              "geocode_type": "exact",
              "matched_osm_name": "Teuku Umar B"
            },
            {
              "stop_sequence": 12,
              "stop_name": "Sd Kristen Petra",
              "stop_name_normalized": "sd kristen petra",
              "is_terminal": false,
              "notes": "",
              "lat": -7.2803137,
              "lon": 112.7367889,
              "geocode_score": 100,
              "geocode_type": "exact",
              "matched_osm_name": "SD Kristen Petra"
            },
            {
              "stop_sequence": 13,
              "stop_name": "W R. Supratman B",
              "stop_name_normalized": "w r supratman b",
              "is_terminal": false,
              "notes": "",
              "lat": -7.2799045,
              "lon": 112.7344024,
              "geocode_score": 90,
              "geocode_type": "high",
              "matched_osm_name": "WR Supratman B"
            },
            {
              "stop_sequence": 14,
              "stop_name": "Ir. Anwari",
              "stop_name_normalized": "ir anwari",
              "is_terminal": false,
              "notes": "",
              "lat": -7.2792763,
              "lon": 112.7318781,
              "geocode_score": 80,
              "geocode_type": "medium",
              "matched_osm_name": "Anwari"
            },
            {
              "stop_sequence": 15,
              "stop_name": "Simpang Kartini",
              "stop_name_normalized": "simpang kartini",
              "is_terminal": false,
              "notes": "",
              "lat": -7.2783426,
              "lon": 112.7296802,
              "geocode_score": 100,
              "geocode_type": "exact",
              "matched_osm_name": "Simpang Kartini"
            },
            {
              "stop_sequence": 16,
              "stop_name": "Ronggowarsito",
              "stop_name_normalized": "ronggowarsito",
              "is_terminal": false,
              "notes": "",
              "lat": -7.2787979,
              "lon": 112.7292943,
              "geocode_score": 100,
              "geocode_type": "exact",
              "matched_osm_name": "Ronggowarsito"
            },
            {
              "stop_sequence": 17,
              "stop_name": "Banyu Urip Wetan",
              "stop_name_normalized": "banyu urip wetan",
              "is_terminal": false,
              "notes": "",
              "lat": -7.2797024,
              "lon": 112.7282005,
              "geocode_score": 100,
              "geocode_type": "exact",
              "matched_osm_name": "Banyu Urip Wetan"
            },
            {
              "stop_sequence": 18,
              "stop_name": "Kembang Kuning",
              "stop_name_normalized": "kembang kuning",
              "is_terminal": false,
              "notes": "",
              "lat": -7.2806233,
              "lon": 112.7293243,
              "geocode_score": 100,
              "geocode_type": "exact",
              "matched_osm_name": "Kembang Kuning"
            },
            {
              "stop_sequence": 19,
              "stop_name": "Masijd Rahmat",
              "stop_name_normalized": "masijd rahmat",
              "is_terminal": false,
              "notes": "",
              "lat": -7.2816841,
              "lon": 112.7293797,
              "geocode_score": 92,
              "geocode_type": "high",
              "matched_osm_name": "Masjid Rahmat"
            },
            {
              "stop_sequence": 20,
              "stop_name": "Amir Hamzah B",
              "stop_name_normalized": "amir hamzah b",
              "is_terminal": false,
              "notes": "",
              "lat": -7.2817345,
              "lon": 112.7307855,
              "geocode_score": 100,
              "geocode_type": "exact",
              "matched_osm_name": "Amir Hamzah B"
            },
            {
              "stop_sequence": 21,
              "stop_name": "Prapanca B",
              "stop_name_normalized": "prapanca b",
              "is_terminal": false,
              "notes": "",
              "lat": -7.2837562,
              "lon": 112.7318055,
              "geocode_score": 100,
              "geocode_type": "exact",
              "matched_osm_name": "Prapanca B"
            },
            {
              "stop_sequence": 22,
              "stop_name": "Pasar Pakis B",
              "stop_name_normalized": "pasar pakis b",
              "is_terminal": false,
              "notes": "",
              "lat": -7.2847669,
              "lon": 112.7305723,
              "geocode_score": 100,
              "geocode_type": "exact",
              "matched_osm_name": "Pasar Pakis B"
            },
            {
              "stop_sequence": 23,
              "stop_name": "Pakis Gunung B",
              "stop_name_normalized": "pakis gunung b",
              "is_terminal": false,
              "notes": "",
              "lat": -7.2863355,
              "lon": 112.7292556,
              "geocode_score": 93,
              "geocode_type": "high",
              "matched_osm_name": "Pakis Gunung A"
            },
            {
              "stop_sequence": 24,
              "stop_name": "Wonokitri Besar B",
              "stop_name_normalized": "wonokitri besar b",
              "is_terminal": false,
              "notes": "",
              "lat": -7.289557,
              "lon": 112.7268849,
              "geocode_score": 100,
              "geocode_type": "exact",
              "matched_osm_name": "Wonokitri Besar B"
            },
            {
              "stop_sequence": 25,
              "stop_name": "Pakis Tirtosari",
              "stop_name_normalized": "pakis tirtosari",
              "is_terminal": false,
              "notes": "",
              "lat": -7.2899951,
              "lon": 112.7233595,
              "geocode_score": 94,
              "geocode_type": "high",
              "matched_osm_name": "Pakis Tirtosari B"
            },
            {
              "stop_sequence": 26,
              "stop_name": "Smp Gema 45 B",
              "stop_name_normalized": "smp gema 45 b",
              "is_terminal": false,
              "notes": "",
              "lat": -7.2901506,
              "lon": 112.721636,
              "geocode_score": 100,
              "geocode_type": "exact",
              "matched_osm_name": "SMP Gema 45 B"
            },
            {
              "stop_sequence": 27,
              "stop_name": "Bintang Diponggo B",
              "stop_name_normalized": "bintang diponggo b",
              "is_terminal": false,
              "notes": "",
              "lat": -7.2903651,
              "lon": 112.7190972,
              "geocode_score": 100,
              "geocode_type": "exact",
              "matched_osm_name": "Bintang Diponggo B"
            },
            {
              "stop_sequence": 28,
              "stop_name": "Park & Ride Mayjend Sungkono",
              "stop_name_normalized": "park & ride mayjend sungkono",
              "is_terminal": true,
              "notes": "",
              "lat": -7.2910073,
              "lon": 112.7150079,
              "geocode_type": "high",
              "matched_osm_name": "PNR Mayjen Sungkono 1"
            }
          ]
        }
      ]
    },
    {
      "route_id": "FD3",
      "route_name": "Terminal Intermoda Joyoboyo - Gunung Anyar",
      "segment_type": "feeder",
      "directions": [
        {
          "direction_id": "FD3_A",
          "arah": "Gunung Anyar",
          "jumlah_pemberhentian": 78,
          "waktu_perjalanan_mnt": 54,
          "stops": [
            {
              "stop_sequence": 1,
              "stop_name": "Terminal Intermoda Joyoboyo",
              "stop_name_normalized": "terminal intermoda joyoboyo",
              "is_terminal": true,
              "notes": "",
              "lat": -7.2989511,
              "lon": 112.7362394,
              "geocode_score": 100,
              "geocode_type": "exact",
              "matched_osm_name": "Terminal Intermoda Joyoboyo"
            },
            {
              "stop_sequence": 2,
              "stop_name": "Marmoyo",
              "stop_name_normalized": "marmoyo",
              "is_terminal": false,
              "notes": "",
              "lat": -7.296246,
              "lon": 112.7394561,
              "geocode_score": 100,
              "geocode_type": "exact",
              "matched_osm_name": "Marmoyo"
            },
            {
              "stop_sequence": 3,
              "stop_name": "Halte Joyoboyo 2",
              "stop_name_normalized": "halte joyoboyo 2",
              "is_terminal": false,
              "notes": "",
              "lat": -7.2987484,
              "lon": 112.7378508,
              "geocode_score": 77,
              "geocode_type": "medium",
              "matched_osm_name": "Joyoboyo 2"
            },
            {
              "stop_sequence": 4,
              "stop_name": "Stasiun Wonokromo A",
              "stop_name_normalized": "stasiun wonokromo a",
              "is_terminal": false,
              "notes": "",
              "lat": -7.3028116,
              "lon": 112.7382363,
              "geocode_score": 94,
              "geocode_type": "high",
              "matched_osm_name": "Stasiun Wonokromo"
            },
            {
              "stop_sequence": 5,
              "stop_name": "Sdn Ngagel A",
              "stop_name_normalized": "sdn ngagel a",
              "is_terminal": false,
              "notes": "",
              "lat": -7.2989852,
              "lon": 112.7408443,
              "geocode_score": 91,
              "geocode_type": "high",
              "matched_osm_name": "SDN Ngagel"
            },
            {
              "stop_sequence": 6,
              "stop_name": "Spbu Ngagel A",
              "stop_name_normalized": "spbu ngagel a",
              "is_terminal": false,
              "notes": "",
              "lat": -7.2969617,
              "lon": 112.742064,
              "geocode_score": 92,
              "geocode_type": "high",
              "matched_osm_name": "SPBU Ngagel"
            },
            {
              "stop_sequence": 7,
              "stop_name": "Novotel A",
              "stop_name_normalized": "novotel a",
              "is_terminal": false,
              "notes": "",
              "lat": -7.2948124,
              "lon": 112.7425023,
              "geocode_score": 88,
              "geocode_type": "high",
              "matched_osm_name": "Novotel"
            },
            {
              "stop_sequence": 8,
              "stop_name": "Ngagel 1a",
              "stop_name_normalized": "ngagel 1a",
              "is_terminal": false,
              "notes": "",
              "lat": -7.2905083,
              "lon": 112.7433744,
              "geocode_score": 100,
              "geocode_type": "exact",
              "matched_osm_name": "Ngagel 1A"
            },
            {
              "stop_sequence": 9,
              "stop_name": "Ngagel 1a",
              "stop_name_normalized": "ngagel 1a",
              "is_terminal": false,
              "notes": "",
              "lat": -7.2905083,
              "lon": 112.7433744,
              "geocode_score": 100,
              "geocode_type": "exact",
              "matched_osm_name": "Ngagel 1A"
            },
            {
              "stop_sequence": 10,
              "stop_name": "Marvell",
              "stop_name_normalized": "marvell",
              "is_terminal": false,
              "notes": "",
              "lat": -7.2893596,
              "lon": 112.7454214,
              "geocode_score": 100,
              "geocode_type": "exact",
              "matched_osm_name": "Marvell"
            },
            {
              "stop_sequence": 11,
              "stop_name": "Bung Tomo",
              "stop_name_normalized": "bung tomo",
              "is_terminal": false,
              "notes": "",
              "lat": -7.2907825,
              "lon": 112.7469227,
              "geocode_score": 100,
              "geocode_type": "exact",
              "matched_osm_name": "Bung Tomo"
            },
            {
              "stop_sequence": 12,
              "stop_name": "Tmp Ngagel 1",
              "stop_name_normalized": "tmp ngagel 1",
              "is_terminal": false,
              "notes": "",
              "lat": -7.2917181,
              "lon": 112.7486263,
              "geocode_score": 92,
              "geocode_type": "high",
              "matched_osm_name": "TMP Ngagel A"
            },
            {
              "stop_sequence": 13,
              "stop_name": "Ngagel Jaya Barat",
              "stop_name_normalized": "ngagel jaya barat",
              "is_terminal": false,
              "notes": "",
              "lat": -7.2926725,
              "lon": 112.7512088,
              "geocode_score": 100,
              "geocode_type": "exact",
              "matched_osm_name": "Ngagel Jaya Barat"
            },
            {
              "stop_sequence": 14,
              "stop_name": "Ngagel Jaya Selatan",
              "stop_name_normalized": "ngagel jaya selatan",
              "is_terminal": false,
              "notes": "",
              "lat": -7.2933646,
              "lon": 112.7537964,
              "geocode_score": 100,
              "geocode_type": "exact",
              "matched_osm_name": "Ngagel Jaya Selatan"
            },
            {
              "stop_sequence": 15,
              "stop_name": "Bilka",
              "stop_name_normalized": "bilka",
              "is_terminal": false,
              "notes": "",
              "lat": -7.293553,
              "lon": 112.7563899,
              "geocode_score": 100,
              "geocode_type": "exact",
              "matched_osm_name": "Bilka"
            },
            {
              "stop_sequence": 16,
              "stop_name": "Ngagel Madya A",
              "stop_name_normalized": "ngagel madya a",
              "is_terminal": false,
              "notes": "",
              "lat": -7.2935721,
              "lon": 112.7591065,
              "geocode_score": 100,
              "geocode_type": "exact",
              "matched_osm_name": "Ngagel Madya A"
            },
            {
              "stop_sequence": 17,
              "stop_name": "Ubaya Ngagel",
              "stop_name_normalized": "ubaya ngagel",
              "is_terminal": false,
              "notes": "",
              "lat": -7.293591,
              "lon": 112.7613025,
              "geocode_score": 92,
              "geocode_type": "high",
              "matched_osm_name": "UBAYA Ngagel A"
            },
            {
              "stop_sequence": 18,
              "stop_name": "Taman Flora",
              "stop_name_normalized": "taman flora",
              "is_terminal": false,
              "notes": "",
              "lat": -7.2953414,
              "lon": 112.7624293,
              "geocode_score": 92,
              "geocode_type": "high",
              "matched_osm_name": "Taman Flora B"
            },
            {
              "stop_sequence": 19,
              "stop_name": "Manyar",
              "stop_name_normalized": "manyar",
              "is_terminal": false,
              "notes": "",
              "lat": -7.2805497,
              "lon": 112.7709385,
              "geocode_score": 100,
              "geocode_type": "exact",
              "matched_osm_name": "Manyar"
            },
            {
              "stop_sequence": 20,
              "stop_name": "Makam Pumpungan A",
              "stop_name_normalized": "makam pumpungan a",
              "is_terminal": false,
              "notes": "",
              "lat": -7.2994371,
              "lon": 112.7642508,
              "geocode_score": 100,
              "geocode_type": "exact",
              "matched_osm_name": "Makam Pumpungan A"
            },
            {
              "stop_sequence": 21,
              "stop_name": "Untag A",
              "stop_name_normalized": "untag a",
              "is_terminal": false,
              "notes": "",
              "lat": -7.2996807,
              "lon": 112.7677255,
              "geocode_score": 100,
              "geocode_type": "exact",
              "matched_osm_name": "UNTAG A"
            },
            {
              "stop_sequence": 22,
              "stop_name": "Nginden Semolo A",
              "stop_name_normalized": "nginden semolo a",
              "is_terminal": false,
              "notes": "",
              "lat": -7.2999644,
              "lon": 112.7721394,
              "geocode_score": 100,
              "geocode_type": "exact",
              "matched_osm_name": "Nginden Semolo A"
            },
            {
              "stop_sequence": 23,
              "stop_name": "Semolowaru A",
              "stop_name_normalized": "semolowaru a",
              "is_terminal": false,
              "notes": "",
              "lat": -7.3001893,
              "lon": 112.7743967,
              "geocode_score": 100,
              "geocode_type": "exact",
              "matched_osm_name": "Semolowaru A"
            },
            {
              "stop_sequence": 24,
              "stop_name": "Semolowaru Elok A",
              "stop_name_normalized": "semolowaru elok a",
              "is_terminal": false,
              "notes": "",
              "lat": -7.3002761,
              "lon": 112.7761749,
              "geocode_score": 100,
              "geocode_type": "exact",
              "matched_osm_name": "Semolowaru Elok A"
            },
            {
              "stop_sequence": 25,
              "stop_name": "Simpang Semolowaru A",
              "stop_name_normalized": "simpang semolowaru a",
              "is_terminal": false,
              "notes": "",
              "lat": -7.3005406,
              "lon": 112.778344,
              "geocode_score": 100,
              "geocode_type": "exact",
              "matched_osm_name": "Simpang Semolowaru A"
            },
            {
              "stop_sequence": 26,
              "stop_name": "Semolowaru Tengah A",
              "stop_name_normalized": "semolowaru tengah a",
              "is_terminal": false,
              "notes": "",
              "lat": -7.3029522,
              "lon": 112.779042,
              "geocode_score": 100,
              "geocode_type": "exact",
              "matched_osm_name": "Semolowaru Tengah A"
            },
            {
              "stop_sequence": 27,
              "stop_name": "Semolowaru Masjid A",
              "stop_name_normalized": "semolowaru masjid a",
              "is_terminal": false,
              "notes": "",
              "lat": -7.3050359,
              "lon": 112.7788372,
              "geocode_score": 100,
              "geocode_type": "exact",
              "matched_osm_name": "Semolowaru Masjid A"
            },
            {
              "stop_sequence": 28,
              "stop_name": "Semampir Tengah A",
              "stop_name_normalized": "semampir tengah a",
              "is_terminal": false,
              "notes": "",
              "lat": -7.3075657,
              "lon": 112.7785767,
              "geocode_score": 100,
              "geocode_type": "exact",
              "matched_osm_name": "Semampir Tengah A"
            },
            {
              "stop_sequence": 29,
              "stop_name": "Medokan Semampir A",
              "stop_name_normalized": "medokan semampir a",
              "is_terminal": false,
              "notes": "",
              "lat": -7.3099239,
              "lon": 112.7784452,
              "geocode_score": 100,
              "geocode_type": "exact",
              "matched_osm_name": "Medokan Semampir A"
            },
            {
              "stop_sequence": 30,
              "stop_name": "Terowongan Medokan A",
              "stop_name_normalized": "terowongan medokan a",
              "is_terminal": false,
              "notes": "",
              "lat": -7.3100944,
              "lon": 112.7801908,
              "geocode_score": 100,
              "geocode_type": "exact",
              "matched_osm_name": "Terowongan Medokan A"
            },
            {
              "stop_sequence": 31,
              "stop_name": "Merr Semampir A",
              "stop_name_normalized": "merr semampir a",
              "is_terminal": false,
              "notes": "",
              "lat": -7.3082862,
              "lon": 112.7803486,
              "geocode_score": 100,
              "geocode_type": "exact",
              "matched_osm_name": "MERR Semampir A"
            },
            {
              "stop_sequence": 32,
              "stop_name": "Halte Sentra Ukm Merr A",
              "stop_name_normalized": "halte sentra ukm merr a",
              "is_terminal": false,
              "notes": "",
              "lat": -7.3059742,
              "lon": 112.7807371,
              "geocode_type": "high",
              "matched_osm_name": "SKG MERR A"
            },
            {
              "stop_sequence": 33,
              "stop_name": "Halte Semampir B",
              "stop_name_normalized": "halte semampir b",
              "is_terminal": false,
              "notes": "",
              "lat": -7.2255922,
              "lon": 112.7443315,
              "geocode_type": "high",
              "matched_osm_name": "Semampir 2"
            },
            {
              "stop_sequence": 34,
              "stop_name": "Merr Semampir B",
              "stop_name_normalized": "merr semampir b",
              "is_terminal": false,
              "notes": "",
              "lat": -7.3082941,
              "lon": 112.7806552,
              "geocode_score": 100,
              "geocode_type": "exact",
              "matched_osm_name": "MERR Semampir B"
            },
            {
              "stop_sequence": 35,
              "stop_name": "Ruko Kedung Baruk",
              "stop_name_normalized": "ruko kedung baruk",
              "is_terminal": false,
              "notes": "",
              "lat": -7.3109269,
              "lon": 112.777384,
              "geocode_score": 100,
              "geocode_type": "exact",
              "matched_osm_name": "Ruko Kedung Baruk"
            },
            {
              "stop_sequence": 36,
              "stop_name": "Simpang Kedung Baruk A",
              "stop_name_normalized": "simpang kedung baruk a",
              "is_terminal": false,
              "notes": "",
              "lat": -7.3105658,
              "lon": 112.776063,
              "geocode_score": 100,
              "geocode_type": "exact",
              "matched_osm_name": "Simpang Kedung Baruk A"
            },
            {
              "stop_sequence": 37,
              "stop_name": "Sdn Kedung Baruk A",
              "stop_name_normalized": "sdn kedung baruk a",
              "is_terminal": false,
              "notes": "",
              "lat": -7.3120461,
              "lon": 112.7757729,
              "geocode_score": 100,
              "geocode_type": "exact",
              "matched_osm_name": "SDN Kedung Baruk A"
            },
            {
              "stop_sequence": 38,
              "stop_name": "Kedung Baruk Masjid A",
              "stop_name_normalized": "kedung baruk masjid a",
              "is_terminal": false,
              "notes": "",
              "lat": -7.3145817,
              "lon": 112.7758737,
              "geocode_score": 100,
              "geocode_type": "exact",
              "matched_osm_name": "Kedung Baruk Masjid A"
            },
            {
              "stop_sequence": 39,
              "stop_name": "Kedung Baruk Gang Patung A",
              "stop_name_normalized": "kedung baruk gang patung a",
              "is_terminal": false,
              "notes": "",
              "lat": -7.3158495,
              "lon": 112.7759138,
              "geocode_score": 100,
              "geocode_type": "exact",
              "matched_osm_name": "Kedung Baruk Gang Patung A"
            },
            {
              "stop_sequence": 40,
              "stop_name": "Sd Islam Yamassa A",
              "stop_name_normalized": "sd islam yamassa a",
              "is_terminal": false,
              "notes": "",
              "lat": -7.317577,
              "lon": 112.7760854,
              "geocode_score": 77,
              "geocode_type": "medium",
              "matched_osm_name": "SDI Yamassa A"
            },
            {
              "stop_sequence": 41,
              "stop_name": "Kedung Asem Masjid A",
              "stop_name_normalized": "kedung asem masjid a",
              "is_terminal": false,
              "notes": "",
              "lat": -7.3192328,
              "lon": 112.7761512,
              "geocode_score": 100,
              "geocode_type": "exact",
              "matched_osm_name": "Kedung Asem Masjid A"
            },
            {
              "stop_sequence": 42,
              "stop_name": "Simpang Kedung Asem A",
              "stop_name_normalized": "simpang kedung asem a",
              "is_terminal": false,
              "notes": "",
              "lat": -7.3213971,
              "lon": 112.7762085,
              "geocode_score": 100,
              "geocode_type": "exact",
              "matched_osm_name": "Simpang Kedung Asem A"
            },
            {
              "stop_sequence": 43,
              "stop_name": "Pasar Sinar Baru A",
              "stop_name_normalized": "pasar sinar baru a",
              "is_terminal": false,
              "notes": "",
              "lat": -7.322047,
              "lon": 112.7778624,
              "geocode_score": 100,
              "geocode_type": "exact",
              "matched_osm_name": "Pasar Sinar Baru A"
            },
            {
              "stop_sequence": 44,
              "stop_name": "Mi Al Bukhori A",
              "stop_name_normalized": "mi al bukhori a",
              "is_terminal": false,
              "notes": "",
              "lat": -7.3221667,
              "lon": 112.7794753,
              "geocode_score": 100,
              "geocode_type": "high",
              "matched_osm_name": "MI Al-Bukhori A"
            },
            {
              "stop_sequence": 45,
              "stop_name": "Halte Pandugo 1",
              "stop_name_normalized": "halte pandugo 1",
              "is_terminal": false,
              "notes": "",
              "lat": -7.3215391,
              "lon": 112.7809219,
              "geocode_score": 75,
              "geocode_type": "medium",
              "matched_osm_name": "Pandugo 1"
            },
            {
              "stop_sequence": 46,
              "stop_name": "Halte Pandugo 2",
              "stop_name_normalized": "halte pandugo 2",
              "is_terminal": false,
              "notes": "",
              "lat": -7.3218197,
              "lon": 112.7812106,
              "geocode_score": 75,
              "geocode_type": "medium",
              "matched_osm_name": "Pandugo 2"
            },
            {
              "stop_sequence": 47,
              "stop_name": "Pasar Wisata Penjaringan Sari A",
              "stop_name_normalized": "pasar wisata penjaringan sari a",
              "is_terminal": false,
              "notes": "",
              "lat": -7.3224832,
              "lon": 112.7823353,
              "geocode_score": 100,
              "geocode_type": "exact",
              "matched_osm_name": "Pasar Wisata Penjaringan Sari A"
            },
            {
              "stop_sequence": 48,
              "stop_name": "Swk Penjaringan Sari A",
              "stop_name_normalized": "swk penjaringan sari a",
              "is_terminal": false,
              "notes": "",
              "lat": -7.3220356,
              "lon": 112.783985,
              "geocode_score": 100,
              "geocode_type": "exact",
              "matched_osm_name": "SWK Penjaringan Sari A"
            },
            {
              "stop_sequence": 49,
              "stop_name": "Wisma Penjaringan Sari A",
              "stop_name_normalized": "wisma penjaringan sari a",
              "is_terminal": false,
              "notes": "",
              "lat": -7.3214303,
              "lon": 112.7864789,
              "geocode_score": 100,
              "geocode_type": "exact",
              "matched_osm_name": "Wisma Penjaringan Sari A"
            },
            {
              "stop_sequence": 50,
              "stop_name": "Ykp Pandugo A",
              "stop_name_normalized": "ykp pandugo a",
              "is_terminal": false,
              "notes": "",
              "lat": -7.3209319,
              "lon": 112.7889095,
              "geocode_score": 100,
              "geocode_type": "exact",
              "matched_osm_name": "YKP Pandugo A"
            },
            {
              "stop_sequence": 51,
              "stop_name": "Graha Ykp A",
              "stop_name_normalized": "graha ykp a",
              "is_terminal": false,
              "notes": "",
              "lat": -7.3205836,
              "lon": 112.7908841,
              "geocode_score": 100,
              "geocode_type": "exact",
              "matched_osm_name": "Graha YKP A"
            },
            {
              "stop_sequence": 52,
              "stop_name": "Medokan Asri Utara A",
              "stop_name_normalized": "medokan asri utara a",
              "is_terminal": false,
              "notes": "",
              "lat": -7.3227341,
              "lon": 112.7919191,
              "geocode_score": 100,
              "geocode_type": "exact",
              "matched_osm_name": "Medokan Asri Utara A"
            },
            {
              "stop_sequence": 53,
              "stop_name": "Penjaringan Asri 1 A",
              "stop_name_normalized": "penjaringan asri 1 a",
              "is_terminal": false,
              "notes": "",
              "lat": -7.3257356,
              "lon": 112.7916576,
              "geocode_score": 97,
              "geocode_type": "high",
              "matched_osm_name": "Penjaringan Asri 1A"
            },
            {
              "stop_sequence": 54,
              "stop_name": "Penjaringan Asri 2 A",
              "stop_name_normalized": "penjaringan asri 2 a",
              "is_terminal": false,
              "notes": "",
              "lat": -7.3260204,
              "lon": 112.7887609,
              "geocode_score": 97,
              "geocode_type": "high",
              "matched_osm_name": "Penjaringan Asri 2A"
            },
            {
              "stop_sequence": 55,
              "stop_name": "Medokan Asri Timur A",
              "stop_name_normalized": "medokan asri timur a",
              "is_terminal": false,
              "notes": "",
              "lat": -7.3274629,
              "lon": 112.7881921,
              "geocode_score": 100,
              "geocode_type": "exact",
              "matched_osm_name": "Medokan Asri Timur A"
            },
            {
              "stop_sequence": 56,
              "stop_name": "Medokan Asri Barat A",
              "stop_name_normalized": "medokan asri barat a",
              "is_terminal": false,
              "notes": "",
              "lat": -7.3295882,
              "lon": 112.7881415,
              "geocode_score": 100,
              "geocode_type": "exact",
              "matched_osm_name": "Medokan Asri Barat A"
            },
            {
              "stop_sequence": 57,
              "stop_name": "Rungkut Asri Timur A",
              "stop_name_normalized": "rungkut asri timur a",
              "is_terminal": false,
              "notes": "",
              "lat": -7.331533,
              "lon": 112.7880686,
              "geocode_score": 100,
              "geocode_type": "exact",
              "matched_osm_name": "Rungkut Asri Timur A"
            },
            {
              "stop_sequence": 58,
              "stop_name": "Rektorat Upn A",
              "stop_name_normalized": "rektorat upn a",
              "is_terminal": false,
              "notes": "",
              "lat": -7.3326655,
              "lon": 112.790186,
              "geocode_score": 100,
              "geocode_type": "exact",
              "matched_osm_name": "Rektorat UPN A"
            },
            {
              "stop_sequence": 59,
              "stop_name": "Gunung Anyar Sawah A",
              "stop_name_normalized": "gunung anyar sawah a",
              "is_terminal": false,
              "notes": "",
              "lat": -7.3328435,
              "lon": 112.791576,
              "geocode_score": 100,
              "geocode_type": "exact",
              "matched_osm_name": "Gunung Anyar Sawah A"
            },
            {
              "stop_sequence": 60,
              "stop_name": "Swk Gunung Anyar A",
              "stop_name_normalized": "swk gunung anyar a",
              "is_terminal": false,
              "notes": "",
              "lat": -7.3332443,
              "lon": 112.794476,
              "geocode_score": 100,
              "geocode_type": "exact",
              "matched_osm_name": "SWK Gunung Anyar A"
            },
            {
              "stop_sequence": 61,
              "stop_name": "Gunung Anyar Jaya A",
              "stop_name_normalized": "gunung anyar jaya a",
              "is_terminal": false,
              "notes": "",
              "lat": -7.3332392,
              "lon": 112.7956461,
              "geocode_score": 100,
              "geocode_type": "exact",
              "matched_osm_name": "Gunung Anyar Jaya A"
            },
            {
              "stop_sequence": 62,
              "stop_name": "Puri Jimbaran A",
              "stop_name_normalized": "puri jimbaran a",
              "is_terminal": false,
              "notes": "",
              "lat": -7.3330355,
              "lon": 112.7974078,
              "geocode_score": 100,
              "geocode_type": "exact",
              "matched_osm_name": "Puri Jimbaran A"
            },
            {
              "stop_sequence": 63,
              "stop_name": "Wiguna A",
              "stop_name_normalized": "wiguna a",
              "is_terminal": false,
              "notes": "",
              "lat": -7.3326548,
              "lon": 112.7998666,
              "geocode_score": 100,
              "geocode_type": "exact",
              "matched_osm_name": "Wiguna A"
            },
            {
              "stop_sequence": 64,
              "stop_name": "Wiguna Tengah A",
              "stop_name_normalized": "wiguna tengah a",
              "is_terminal": false,
              "notes": "",
              "lat": -7.3349172,
              "lon": 112.7998915,
              "geocode_score": 100,
              "geocode_type": "exact",
              "matched_osm_name": "Wiguna Tengah A"
            },
            {
              "stop_sequence": 65,
              "stop_name": "Taman Wiguna Timur A",
              "stop_name_normalized": "taman wiguna timur a",
              "is_terminal": false,
              "notes": "",
              "lat": -7.3357516,
              "lon": 112.8017693,
              "geocode_score": 100,
              "geocode_type": "exact",
              "matched_osm_name": "Taman Wiguna Timur A"
            },
            {
              "stop_sequence": 66,
              "stop_name": "Wiguna Timur A",
              "stop_name_normalized": "wiguna timur a",
              "is_terminal": false,
              "notes": "",
              "lat": -7.3371512,
              "lon": 112.8018648,
              "geocode_score": 100,
              "geocode_type": "exact",
              "matched_osm_name": "Wiguna Timur A"
            },
            {
              "stop_sequence": 67,
              "stop_name": "Wiguna Timur 2",
              "stop_name_normalized": "wiguna timur 2",
              "is_terminal": false,
              "notes": "",
              "lat": -7.3383369,
              "lon": 112.801961,
              "geocode_score": 100,
              "geocode_type": "exact",
              "matched_osm_name": "Wiguna Timur 2"
            },
            {
              "stop_sequence": 68,
              "stop_name": "Kelurahan Gunung Anyar Tambak A",
              "stop_name_normalized": "kelurahan gunung anyar tambak a",
              "is_terminal": false,
              "notes": "",
              "lat": -7.3393469,
              "lon": 112.8020666,
              "geocode_score": 100,
              "geocode_type": "exact",
              "matched_osm_name": "Kelurahan Gunung Anyar Tambak A"
            },
            {
              "stop_sequence": 69,
              "stop_name": "Central Park A",
              "stop_name_normalized": "central park a",
              "is_terminal": false,
              "notes": "",
              "lat": -7.3417782,
              "lon": 112.8020124,
              "geocode_score": 100,
              "geocode_type": "exact",
              "matched_osm_name": "Central Park A"
            },
            {
              "stop_sequence": 70,
              "stop_name": "Gunung Anyar Tambak A",
              "stop_name_normalized": "gunung anyar tambak a",
              "is_terminal": false,
              "notes": "",
              "lat": -7.3439346,
              "lon": 112.8021366,
              "geocode_score": 100,
              "geocode_type": "exact",
              "matched_osm_name": "Gunung Anyar Tambak A"
            },
            {
              "stop_sequence": 71,
              "stop_name": "Gunung Asri A",
              "stop_name_normalized": "gunung asri a",
              "is_terminal": false,
              "notes": "",
              "lat": -7.3437869,
              "lon": 112.8011662,
              "geocode_type": "high",
              "matched_osm_name": "Gunung Anyar Asri A"
            },
            {
              "stop_sequence": 72,
              "stop_name": "Bumi Pratama Asri A",
              "stop_name_normalized": "bumi pratama asri a",
              "is_terminal": false,
              "notes": "",
              "lat": -7.3434307,
              "lon": 112.7999683,
              "geocode_score": 100,
              "geocode_type": "exact",
              "matched_osm_name": "Bumi Pratama Asri A"
            },
            {
              "stop_sequence": 73,
              "stop_name": "Evergreen A",
              "stop_name_normalized": "evergreen a",
              "is_terminal": false,
              "notes": "",
              "lat": -7.3431376,
              "lon": 112.7976954,
              "geocode_score": 100,
              "geocode_type": "exact",
              "matched_osm_name": "Evergreen A"
            },
            {
              "stop_sequence": 74,
              "stop_name": "Poltekpel",
              "stop_name_normalized": "poltekpel",
              "is_terminal": false,
              "notes": "",
              "lat": -7.2238074,
              "lon": 112.7406805,
              "geocode_score": 100,
              "geocode_type": "exact",
              "matched_osm_name": "Poltekpel"
            },
            {
              "stop_sequence": 75,
              "stop_name": "Pesona Alam Gunung Anyar A",
              "stop_name_normalized": "pesona alam gunung anyar a",
              "is_terminal": false,
              "notes": "",
              "lat": -7.3424179,
              "lon": 112.7931232,
              "geocode_score": 100,
              "geocode_type": "exact",
              "matched_osm_name": "Pesona Alam Gunung Anyar A"
            },
            {
              "stop_sequence": 76,
              "stop_name": "Gapercy A",
              "stop_name_normalized": "gapercy a",
              "is_terminal": false,
              "notes": "",
              "lat": -7.3414151,
              "lon": 112.7888707,
              "geocode_score": 100,
              "geocode_type": "exact",
              "matched_osm_name": "Gapercy A"
            },
            {
              "stop_sequence": 77,
              "stop_name": "Merr Gunung Anyar",
              "stop_name_normalized": "merr gunung anyar",
              "is_terminal": false,
              "notes": "",
              "lat": -7.3411719,
              "lon": 112.7854603,
              "geocode_score": 100,
              "geocode_type": "exact",
              "matched_osm_name": "MERR Gunung Anyar"
            },
            {
              "stop_sequence": 78,
              "stop_name": "Halte Gunung Anyar Timur 1",
              "stop_name_normalized": "halte gunung anyar timur 1",
              "is_terminal": false,
              "notes": "",
              "lat": -7.3397159,
              "lon": 112.7845361,
              "geocode_score": 87,
              "geocode_type": "high",
              "matched_osm_name": "Gunung Anyar Timur 1"
            },
            {
              "stop_sequence": 79,
              "stop_name": "Halte Gunung Anyar Timur 2",
              "stop_name_normalized": "halte gunung anyar timur 2",
              "is_terminal": false,
              "notes": "",
              "lat": -7.339462,
              "lon": 112.7847,
              "geocode_score": 87,
              "geocode_type": "high",
              "matched_osm_name": "Gunung Anyar Timur 2"
            },
            {
              "stop_sequence": 80,
              "stop_name": "Gapercy B",
              "stop_name_normalized": "gapercy b",
              "is_terminal": false,
              "notes": "",
              "lat": -7.3413694,
              "lon": 112.789128,
              "geocode_score": 100,
              "geocode_type": "exact",
              "matched_osm_name": "Gapercy B"
            },
            {
              "stop_sequence": 81,
              "stop_name": "Pesona Alam Gunung Anyar B",
              "stop_name_normalized": "pesona alam gunung anyar b",
              "is_terminal": true,
              "notes": "",
              "lat": -7.3422543,
              "lon": 112.7929024,
              "geocode_score": 100,
              "geocode_type": "exact",
              "matched_osm_name": "Pesona Alam Gunung Anyar B"
            }
          ]
        },
        {
          "direction_id": "FD3_B",
          "arah": "Terminal Intermoda Joyoboyo",
          "jumlah_pemberhentian": 67,
          "waktu_perjalanan_mnt": 54,
          "stops": [
            {
              "stop_sequence": 1,
              "stop_name": "Smpn 62",
              "stop_name_normalized": "smpn 62",
              "is_terminal": true,
              "notes": "",
              "lat": -7.3426249,
              "lon": 112.7947054,
              "geocode_score": 100,
              "geocode_type": "exact",
              "matched_osm_name": "SMPN 62"
            },
            {
              "stop_sequence": 2,
              "stop_name": "Evergreen B",
              "stop_name_normalized": "evergreen b",
              "is_terminal": false,
              "notes": "",
              "lat": -7.3430307,
              "lon": 112.7978206,
              "geocode_score": 100,
              "geocode_type": "exact",
              "matched_osm_name": "Evergreen B"
            },
            {
              "stop_sequence": 3,
              "stop_name": "Bumi Pratama Asri B",
              "stop_name_normalized": "bumi pratama asri b",
              "is_terminal": false,
              "notes": "",
              "lat": -7.3433953,
              "lon": 112.8001116,
              "geocode_score": 100,
              "geocode_type": "exact",
              "matched_osm_name": "Bumi Pratama Asri B"
            },
            {
              "stop_sequence": 4,
              "stop_name": "Gunung Asri B",
              "stop_name_normalized": "gunung asri b",
              "is_terminal": false,
              "notes": "",
              "lat": -7.3436907,
              "lon": 112.801148,
              "geocode_type": "high",
              "matched_osm_name": "Gunung Anyar Asri B"
            },
            {
              "stop_sequence": 5,
              "stop_name": "Gunung Anyar Tambak B",
              "stop_name_normalized": "gunung anyar tambak b",
              "is_terminal": false,
              "notes": "",
              "lat": -7.3438088,
              "lon": 112.8023344,
              "geocode_score": 100,
              "geocode_type": "exact",
              "matched_osm_name": "Gunung Anyar Tambak B"
            },
            {
              "stop_sequence": 6,
              "stop_name": "Central Park B",
              "stop_name_normalized": "central park b",
              "is_terminal": false,
              "notes": "",
              "lat": -7.3416915,
              "lon": 112.80195,
              "geocode_score": 100,
              "geocode_type": "exact",
              "matched_osm_name": "Central Park B"
            },
            {
              "stop_sequence": 7,
              "stop_name": "Kelurahan Gunung Anyar Tambak B",
              "stop_name_normalized": "kelurahan gunung anyar tambak b",
              "is_terminal": false,
              "notes": "",
              "lat": -7.3387962,
              "lon": 112.8018236,
              "geocode_score": 100,
              "geocode_type": "exact",
              "matched_osm_name": "Kelurahan Gunung Anyar Tambak B"
            },
            {
              "stop_sequence": 8,
              "stop_name": "Wiguna Timur B",
              "stop_name_normalized": "wiguna timur b",
              "is_terminal": false,
              "notes": "",
              "lat": -7.336658,
              "lon": 112.8016496,
              "geocode_score": 100,
              "geocode_type": "exact",
              "matched_osm_name": "Wiguna Timur B"
            },
            {
              "stop_sequence": 9,
              "stop_name": "Taman Wiguna Timur B",
              "stop_name_normalized": "taman wiguna timur b",
              "is_terminal": false,
              "notes": "",
              "lat": -7.3351999,
              "lon": 112.8015368,
              "geocode_score": 100,
              "geocode_type": "exact",
              "matched_osm_name": "Taman Wiguna Timur B"
            },
            {
              "stop_sequence": 10,
              "stop_name": "Wiguna Tengah B",
              "stop_name_normalized": "wiguna tengah b",
              "is_terminal": false,
              "notes": "",
              "lat": -7.3349403,
              "lon": 112.7998428,
              "geocode_score": 100,
              "geocode_type": "exact",
              "matched_osm_name": "Wiguna Tengah B"
            },
            {
              "stop_sequence": 11,
              "stop_name": "Puri Jimbaran B",
              "stop_name_normalized": "puri jimbaran b",
              "is_terminal": false,
              "notes": "",
              "lat": -7.3332286,
              "lon": 112.7972887,
              "geocode_score": 100,
              "geocode_type": "exact",
              "matched_osm_name": "Puri Jimbaran B"
            },
            {
              "stop_sequence": 12,
              "stop_name": "Gunung Anyar Jaya B",
              "stop_name_normalized": "gunung anyar jaya b",
              "is_terminal": false,
              "notes": "",
              "lat": -7.3334235,
              "lon": 112.7959192,
              "geocode_score": 100,
              "geocode_type": "exact",
              "matched_osm_name": "Gunung Anyar Jaya B"
            },
            {
              "stop_sequence": 13,
              "stop_name": "Swk Gunung Anyar B",
              "stop_name_normalized": "swk gunung anyar b",
              "is_terminal": false,
              "notes": "",
              "lat": -7.3334712,
              "lon": 112.7944128,
              "geocode_score": 100,
              "geocode_type": "exact",
              "matched_osm_name": "SWK Gunung Anyar B"
            },
            {
              "stop_sequence": 14,
              "stop_name": "Gunung Anyar Sawah B",
              "stop_name_normalized": "gunung anyar sawah b",
              "is_terminal": false,
              "notes": "",
              "lat": -7.3330632,
              "lon": 112.7915936,
              "geocode_score": 100,
              "geocode_type": "exact",
              "matched_osm_name": "Gunung Anyar Sawah B"
            },
            {
              "stop_sequence": 15,
              "stop_name": "Rektorat Upn B",
              "stop_name_normalized": "rektorat upn b",
              "is_terminal": false,
              "notes": "",
              "lat": -7.3325403,
              "lon": 112.7902071,
              "geocode_score": 100,
              "geocode_type": "exact",
              "matched_osm_name": "Rektorat UPN B"
            },
            {
              "stop_sequence": 16,
              "stop_name": "Rungkut Asri Timur B",
              "stop_name_normalized": "rungkut asri timur b",
              "is_terminal": false,
              "notes": "",
              "lat": -7.3316052,
              "lon": 112.7879003,
              "geocode_score": 100,
              "geocode_type": "exact",
              "matched_osm_name": "Rungkut Asri Timur B"
            },
            {
              "stop_sequence": 17,
              "stop_name": "Medokan Asri Barat B",
              "stop_name_normalized": "medokan asri barat b",
              "is_terminal": false,
              "notes": "",
              "lat": -7.3293447,
              "lon": 112.787977,
              "geocode_score": 100,
              "geocode_type": "exact",
              "matched_osm_name": "Medokan Asri Barat B"
            },
            {
              "stop_sequence": 18,
              "stop_name": "Medokan Asri Timur B",
              "stop_name_normalized": "medokan asri timur b",
              "is_terminal": false,
              "notes": "",
              "lat": -7.3273496,
              "lon": 112.7880043,
              "geocode_score": 100,
              "geocode_type": "exact",
              "matched_osm_name": "Medokan Asri Timur B"
            },
            {
              "stop_sequence": 19,
              "stop_name": "Penjaringan Asri 2 B",
              "stop_name_normalized": "penjaringan asri 2 b",
              "is_terminal": false,
              "notes": "",
              "lat": -7.3257931,
              "lon": 112.7885575,
              "geocode_score": 92,
              "geocode_type": "high",
              "matched_osm_name": "Penjaringan Asri 2B"
            },
            {
              "stop_sequence": 20,
              "stop_name": "Penjaringan Asri 1 B",
              "stop_name_normalized": "penjaringan asri 1 b",
              "is_terminal": false,
              "notes": "",
              "lat": -7.3254558,
              "lon": 112.7917186,
              "geocode_score": 92,
              "geocode_type": "high",
              "matched_osm_name": "Penjaringan Asri 1B"
            },
            {
              "stop_sequence": 21,
              "stop_name": "Medokan Asri Utara B",
              "stop_name_normalized": "medokan asri utara b",
              "is_terminal": false,
              "notes": "",
              "lat": -7.3226529,
              "lon": 112.7916658,
              "geocode_score": 100,
              "geocode_type": "exact",
              "matched_osm_name": "Medokan Asri Utara B"
            },
            {
              "stop_sequence": 22,
              "stop_name": "Graha Ykp B",
              "stop_name_normalized": "graha ykp b",
              "is_terminal": false,
              "notes": "",
              "lat": -7.3207912,
              "lon": 112.7907861,
              "geocode_score": 100,
              "geocode_type": "exact",
              "matched_osm_name": "Graha YKP B"
            },
            {
              "stop_sequence": 23,
              "stop_name": "Ykp Pandugo B",
              "stop_name_normalized": "ykp pandugo b",
              "is_terminal": false,
              "notes": "",
              "lat": -7.3210574,
              "lon": 112.7887711,
              "geocode_score": 100,
              "geocode_type": "exact",
              "matched_osm_name": "YKP Pandugo B"
            },
            {
              "stop_sequence": 24,
              "stop_name": "Wisma Penjaringan Sari B",
              "stop_name_normalized": "wisma penjaringan sari b",
              "is_terminal": false,
              "notes": "",
              "lat": -7.3215147,
              "lon": 112.7869275,
              "geocode_score": 100,
              "geocode_type": "exact",
              "matched_osm_name": "Wisma Penjaringan Sari B"
            },
            {
              "stop_sequence": 25,
              "stop_name": "Swk Penjaringan Sari B",
              "stop_name_normalized": "swk penjaringan sari b",
              "is_terminal": false,
              "notes": "",
              "lat": -7.3221895,
              "lon": 112.7840872,
              "geocode_score": 100,
              "geocode_type": "exact",
              "matched_osm_name": "SWK Penjaringan Sari B"
            },
            {
              "stop_sequence": 26,
              "stop_name": "Pasar Wisata Penjaringan Sari B",
              "stop_name_normalized": "pasar wisata penjaringan sari b",
              "is_terminal": false,
              "notes": "",
              "lat": -7.3225608,
              "lon": 112.782363,
              "geocode_score": 100,
              "geocode_type": "exact",
              "matched_osm_name": "Pasar Wisata Penjaringan Sari B"
            },
            {
              "stop_sequence": 27,
              "stop_name": "Mi Al Bukhori B",
              "stop_name_normalized": "mi al bukhori b",
              "is_terminal": false,
              "notes": "",
              "lat": -7.3222462,
              "lon": 112.7796404,
              "geocode_score": 100,
              "geocode_type": "high",
              "matched_osm_name": "MI Al-Bukhori B"
            },
            {
              "stop_sequence": 28,
              "stop_name": "Pasar Sinar Baru B",
              "stop_name_normalized": "pasar sinar baru b",
              "is_terminal": false,
              "notes": "",
              "lat": -7.3221363,
              "lon": 112.7778635,
              "geocode_score": 100,
              "geocode_type": "exact",
              "matched_osm_name": "Pasar Sinar Baru B"
            },
            {
              "stop_sequence": 29,
              "stop_name": "Simpang Kedung Asem B",
              "stop_name_normalized": "simpang kedung asem b",
              "is_terminal": false,
              "notes": "",
              "lat": -7.3215134,
              "lon": 112.7761272,
              "geocode_score": 100,
              "geocode_type": "exact",
              "matched_osm_name": "Simpang Kedung Asem B"
            },
            {
              "stop_sequence": 30,
              "stop_name": "Kedung Asem Masjid B",
              "stop_name_normalized": "kedung asem masjid b",
              "is_terminal": false,
              "notes": "",
              "lat": -7.3193206,
              "lon": 112.776087,
              "geocode_score": 100,
              "geocode_type": "exact",
              "matched_osm_name": "Kedung Asem Masjid B"
            },
            {
              "stop_sequence": 31,
              "stop_name": "Sd Islam Yamassa B",
              "stop_name_normalized": "sd islam yamassa b",
              "is_terminal": false,
              "notes": "",
              "lat": -7.3176607,
              "lon": 112.776017,
              "geocode_score": 77,
              "geocode_type": "medium",
              "matched_osm_name": "SDI Yamassa B"
            },
            {
              "stop_sequence": 32,
              "stop_name": "Kedung Baruk Gang Patung B",
              "stop_name_normalized": "kedung baruk gang patung b",
              "is_terminal": false,
              "notes": "",
              "lat": -7.3158502,
              "lon": 112.7758535,
              "geocode_score": 100,
              "geocode_type": "exact",
              "matched_osm_name": "Kedung Baruk Gang Patung B"
            },
            {
              "stop_sequence": 33,
              "stop_name": "Kedung Baruk Masjid B",
              "stop_name_normalized": "kedung baruk masjid b",
              "is_terminal": false,
              "notes": "",
              "lat": -7.3148082,
              "lon": 112.7758682,
              "geocode_score": 100,
              "geocode_type": "exact",
              "matched_osm_name": "Kedung Baruk Masjid B"
            },
            {
              "stop_sequence": 34,
              "stop_name": "Sdn Kedung Baruk B",
              "stop_name_normalized": "sdn kedung baruk b",
              "is_terminal": false,
              "notes": "",
              "lat": -7.3120474,
              "lon": 112.7756997,
              "geocode_score": 100,
              "geocode_type": "exact",
              "matched_osm_name": "SDN Kedung Baruk B"
            },
            {
              "stop_sequence": 35,
              "stop_name": "Simpang Kedung Baruk B",
              "stop_name_normalized": "simpang kedung baruk b",
              "is_terminal": false,
              "notes": "",
              "lat": -7.3104426,
              "lon": 112.7755844,
              "geocode_score": 100,
              "geocode_type": "exact",
              "matched_osm_name": "Simpang Kedung Baruk B"
            },
            {
              "stop_sequence": 36,
              "stop_name": "Terowongan Medokan B",
              "stop_name_normalized": "terowongan medokan b",
              "is_terminal": false,
              "notes": "",
              "lat": -7.3101106,
              "lon": 112.7803481,
              "geocode_score": 100,
              "geocode_type": "exact",
              "matched_osm_name": "Terowongan Medokan B"
            },