{
  "metadata": {
    "source": "Trans Jogja",
    "kota": "Yogyakarta"
  },
  "routes": [
    {
      "route_id": "1A",
      "route_name": "Terminal Prambanan - Halte Malioboro 3",
      "segment_type": "rapid",
      "directions": [
        {
          "direction_id": "1A_A",
          "arah": "Halte Malioboro 3",
          "jumlah_pemberhentian": null,
          "waktu_perjalanan_mnt": null,
          "stops": [
            {
              "stop_sequence": 1,
              "stop_name": "Terminal Prambanan",
              "stop_name_normalized": "terminal prambanan",
              "is_terminal": true,
              "notes": "",
              "lat": -7.7556139,
              "lon": 110.4898039,
              "geocode_score": 100,
              "geocode_type": "exact",
              "matched_osm_name": "Terminal Prambanan"
            },
            {
              "stop_sequence": 2,
              "stop_name": "TPB Edotel Kalasan 2",
              "stop_name_normalized": "tpb edotel kalasan 2",
              "is_terminal": false,
              "notes": "",
              "lat": -7.7568242,
              "lon": 110.4827225,
              "geocode_score": 80,
              "geocode_type": "high",
              "matched_osm_name": "TPB Edotel Kalasan"
            },
            {
              "stop_sequence": 3,
              "stop_name": "RS Bhayangkara",
              "stop_name_normalized": "rs bhayangkara",
              "is_terminal": false,
              "notes": "",
              "lat": -7.7672992,
              "lon": 110.4714619,
              "geocode_score": 100,
              "geocode_type": "exact",
              "matched_osm_name": "RS Bhayangkara"
            },
            {
              "stop_sequence": 4,
              "stop_name": "Portable Pasar Kalasan",
              "stop_name_normalized": "portable pasar kalasan",
              "is_terminal": false,
              "notes": "",
              "lat": -7.7686341,
              "lon": 110.4703645,
              "geocode_score": 100,
              "geocode_type": "exact",
              "matched_osm_name": "Portable Pasar Kalasan"
            },
            {
              "stop_sequence": 5,
              "stop_name": "Cupuwatu",
              "stop_name_normalized": "cupuwatu",
              "is_terminal": false,
              "notes": "",
              "lat": -7.7786565,
              "lon": 110.4561659,
              "geocode_score": 100,
              "geocode_type": "exact",
              "matched_osm_name": "Cupuwatu"
            },
            {
              "stop_sequence": 6,
              "stop_name": "Halte Jl. Solo KR 2",
              "stop_name_normalized": "halte jl solo kr 2",
              "is_terminal": false,
              "notes": "",
              "lat": -7.7824916,
              "lon": 110.4487701,
              "geocode_score": 100,
              "geocode_type": "exact",
              "matched_osm_name": "Halte Jl. Solo (KR. 2)"
            },
            {
              "stop_sequence": 7,
              "stop_name": "Halte TJ Bandara Adisucipto",
              "stop_name_normalized": "halte tj bandara adisucipto",
              "is_terminal": false,
              "notes": "",
              "lat": -7.784573,
              "lon": 110.436319,
              "geocode_score": 90,
              "geocode_type": "high",
              "matched_osm_name": "GMaps"
            },
            {
              "stop_sequence": 8,
              "stop_name": "Halte Hyundai",
              "stop_name_normalized": "halte hyundai",
              "is_terminal": false,
              "notes": "",
              "lat": -7.7835407,
              "lon": 110.4283314,
              "geocode_score": 85,
              "geocode_type": "high",
              "matched_osm_name": "TPB Hyundai"
            },
            {
              "stop_sequence": 9,
              "stop_name": "Halte Jl. Solo (Jayakarta)",
              "stop_name_normalized": "halte jl solo jayakarta",
              "is_terminal": false,
              "notes": "",
              "lat": -7.7834291,
              "lon": 110.4193845,
              "geocode_score": 100,
              "geocode_type": "exact",
              "matched_osm_name": "Halte Jl. Solo (Jayakarta)"
            },
            {
              "stop_sequence": 10,
              "stop_name": "Halte Janti Selatan (Bawah Jembatan)",
              "stop_name_normalized": "halte janti selatan bawah jembatan",
              "is_terminal": false,
              "notes": "",
              "lat": -7.7857754,
              "lon": 110.4104435,
              "geocode_score": 80,
              "geocode_type": "high",
              "matched_osm_name": "Halte Janti Selatan"
            },
            {
              "stop_sequence": 11,
              "stop_name": "Halte Ambarukmo",
              "stop_name_normalized": "halte ambarukmo",
              "is_terminal": false,
              "notes": "",
              "lat": -7.783336,
              "lon": 110.401768,
              "geocode_score": 90,
              "geocode_type": "high",
              "matched_osm_name": "GMaps"
            },
            {
              "stop_sequence": 12,
              "stop_name": "Halte Gedung Wanita",
              "stop_name_normalized": "halte gedung wanita",
              "is_terminal": false,
              "notes": "",
              "lat": -7.7832303,
              "lon": 110.3927041,
              "geocode_score": 100,
              "geocode_type": "exact",
              "matched_osm_name": "Halte Gedung Wanita"
            },
            {
              "stop_sequence": 13,
              "stop_name": "Halte LPP",
              "stop_name_normalized": "halte lpp",
              "is_terminal": false,
              "notes": "",
              "lat": -7.7831536,
              "lon": 110.3861188,
              "geocode_score": 100,
              "geocode_type": "exact",
              "matched_osm_name": "Halte LPP"
            },
            {
              "stop_sequence": 14,
              "stop_name": "Halte Superindo Urip Sumoharjo",
              "stop_name_normalized": "halte superindo urip sumoharjo",
              "is_terminal": false,
              "notes": "",
              "lat": -7.7831131,
              "lon": 110.3823376,
              "geocode_score": 90,
              "geocode_type": "high",
              "matched_osm_name": "Superindo Urip Sumoharjo"
            },
            {
              "stop_sequence": 15,
              "stop_name": "Halte RS Bethesda",
              "stop_name_normalized": "halte rs bethesda",
              "is_terminal": false,
              "notes": "",
              "lat": -7.78302,
              "lon": 110.377961,
              "geocode_score": 90,
              "geocode_type": "high",
              "matched_osm_name": "GMaps"
            },
            {
              "stop_sequence": 16,
              "stop_name": "Halte Sudirman Bumiputera",
              "stop_name_normalized": "halte sudirman bumiputera",
              "is_terminal": false,
              "notes": "",
              "lat": -7.7830367,
              "lon": 110.369548,
              "geocode_score": 100,
              "geocode_type": "exact",
              "matched_osm_name": "Halte Sudirman (Bumiputera)"
            },
            {
              "stop_sequence": 17,
              "stop_name": "Halte Mangkubumi 1",
              "stop_name_normalized": "halte mangkubumi 1",
              "is_terminal": false,
              "notes": "",
              "lat": -7.7847283,
              "lon": 110.3668925,
              "geocode_score": 100,
              "geocode_type": "exact",
              "matched_osm_name": "Halte Mangkubumi 1"
            },
            {
              "stop_sequence": 18,
              "stop_name": "Halte Mangkubumi 2",
              "stop_name_normalized": "halte mangkubumi 2",
              "is_terminal": false,
              "notes": "",
              "lat": -7.7876463,
              "lon": 110.3665282,
              "geocode_score": 100,
              "geocode_type": "exact",
              "matched_osm_name": "Halte Mangkubumi 2"
            },
            {
              "stop_sequence": 19,
              "stop_name": "Eks Menara Kopi (Utara)",
              "stop_name_normalized": "eks menara kopi utara",
              "is_terminal": false,
              "notes": "",
              "lat": -7.789203,
              "lon": 110.370122,
              "geocode_score": 90,
              "geocode_type": "high",
              "matched_osm_name": "GMaps"
            },
            {
              "stop_sequence": 20,
              "stop_name": "Halte Kridosono",
              "stop_name_normalized": "halte kridosono",
              "is_terminal": false,
              "notes": "",
              "lat": -7.7872961,
              "lon": 110.3753663,
              "geocode_score": 100,
              "geocode_type": "exact",
              "matched_osm_name": "Halte Kridosono"
            },
            {
              "stop_sequence": 21,
              "stop_name": "Eks Menara Kopi (Selatan)",
              "stop_name_normalized": "eks menara kopi selatan",
              "is_terminal": false,
              "notes": "",
              "lat": -7.789395,
              "lon": 110.370091,
              "geocode_score": 90,
              "geocode_type": "high",
              "matched_osm_name": "GMaps"
            },
            {
              "stop_sequence": 22,
              "stop_name": "Halte Malioboro 1",
              "stop_name_normalized": "halte malioboro 1",
              "is_terminal": false,
              "notes": "",
              "lat": -7.7908065,
              "lon": 110.3661256,
              "geocode_score": 100,
              "geocode_type": "exact",
              "matched_osm_name": "Halte Malioboro 1"
            },
            {
              "stop_sequence": 23,
              "stop_name": "Halte Malioboro 2 (Kepatihan)",
              "stop_name_normalized": "halte malioboro 2 kepatihan",
              "is_terminal": false,
              "notes": "",
              "lat": -7.7951933,
              "lon": 110.3655817,
              "geocode_score": 100,
              "geocode_type": "exact",
              "matched_osm_name": "Halte Malioboro 2 (Kepatihan)"
            },
            {
              "stop_sequence": 24,
              "stop_name": "Halte Malioboro 3",
              "stop_name_normalized": "halte malioboro 3",
              "is_terminal": true,
              "notes": "",
              "lat": -7.7998539,
              "lon": 110.3649844,
              "geocode_score": 100,
              "geocode_type": "exact",
              "matched_osm_name": "Halte Malioboro 3"
            }
          ]
        },
        {
          "direction_id": "1A_B",
          "arah": "Terminal Prambanan",
          "jumlah_pemberhentian": null,
          "waktu_perjalanan_mnt": null,
          "stops": [
            {
              "stop_sequence": 1,
              "stop_name": "Halte Malioboro 3",
              "stop_name_normalized": "halte malioboro 3",
              "is_terminal": true,
              "notes": "",
              "lat": -7.7998539,
              "lon": 110.3649844,
              "geocode_score": 100,
              "geocode_type": "exact",
              "matched_osm_name": "Halte Malioboro 3"
            },
            {
              "stop_sequence": 2,
              "stop_name": "Taman Pintar",
              "stop_name_normalized": "taman pintar",
              "is_terminal": false,
              "notes": "",
              "lat": -7.8015439,
              "lon": 110.3670286,
              "geocode_score": 100,
              "geocode_type": "exact",
              "matched_osm_name": "Taman Pintar"
            },
            {
              "stop_sequence": 3,
              "stop_name": "TPB Jl. Mayor Suryotomo 1",
              "stop_name_normalized": "tpb jl mayor suryotomo 1",
              "is_terminal": false,
              "notes": "",
              "lat": -7.7992531,
              "lon": 110.3692813,
              "geocode_score": 100,
              "geocode_type": "exact",
              "matched_osm_name": "TPB Jl. Mayor Suryotomo 1"
            },
            {
              "stop_sequence": 4,
              "stop_name": "Halte Progo",
              "stop_name_normalized": "halte progo",
              "is_terminal": false,
              "notes": "",
              "lat": -7.7980094,
              "lon": 110.3693141,
              "geocode_score": 90,
              "geocode_type": "high",
              "matched_osm_name": "Progo"
            },
            {
              "stop_sequence": 5,
              "stop_name": "Halte Jl. Mataram Hotel Akur",
              "stop_name_normalized": "halte jl mataram hotel akur",
              "is_terminal": false,
              "notes": "",
              "lat": -7.794266,
              "lon": 110.368056,
              "geocode_score": 90,
              "geocode_type": "high",
              "matched_osm_name": "GMaps"
            },
            {
              "stop_sequence": 6,
              "stop_name": "Portable Teras Malioboro 2",
              "stop_name_normalized": "portable teras malioboro 2",
              "is_terminal": false,
              "notes": "",
              "lat": -7.7917914,
              "lon": 110.367545,
              "geocode_score": 80,
              "geocode_type": "high",
              "matched_osm_name": "Portabel Teras Malioboro"
            },
            {
              "stop_sequence": 7,
              "stop_name": "Eks Menara Kopi (Utara)",
              "stop_name_normalized": "eks menara kopi utara",
              "is_terminal": false,
              "notes": "",
              "lat": -7.789203,
              "lon": 110.370122,
              "geocode_score": 90,
              "geocode_type": "high",
              "matched_osm_name": "GMaps"
            },
            {
              "stop_sequence": 8,
              "stop_name": "Halte Kridosono",
              "stop_name_normalized": "halte kridosono",
              "is_terminal": false,
              "notes": "",
              "lat": -7.7872961,
              "lon": 110.3753663,
              "geocode_score": 100,
              "geocode_type": "exact",
              "matched_osm_name": "Halte Kridosono"
            },
            {
              "stop_sequence": 9,
              "stop_name": "Halte TJ YKPN",
              "stop_name_normalized": "halte tj ykpn",
              "is_terminal": false,
              "notes": "",
              "lat": -7.78612,
              "lon": 110.383453,
              "geocode_score": 90,
              "geocode_type": "high",
              "matched_osm_name": "GMaps"
            },
            {
              "stop_sequence": 10,
              "stop_name": "TPB Demangan",
              "stop_name_normalized": "tpb demangan",
              "is_terminal": false,
              "notes": "",
              "lat": -7.7830178,
              "lon": 110.3886612,
              "geocode_score": 100,
              "geocode_type": "exact",
              "matched_osm_name": "TPB Demangan"
            },
            {
              "stop_sequence": 11,
              "stop_name": "Halte TJ Solo (SMA Debrito)",
              "stop_name_normalized": "halte tj solo sma debrito",
              "is_terminal": false,
              "notes": "",
              "lat": -7.8224383,
              "lon": 110.3990324,
              "geocode_score": 75,
              "geocode_type": "high",
              "matched_osm_name": "TPB SMA 5"
            },
            {
              "stop_sequence": 12,
              "stop_name": "Ambarukmo Plaza 2",
              "stop_name_normalized": "ambarukmo plaza 2",
              "is_terminal": false,
              "notes": "",
              "lat": -7.7831548,
              "lon": 110.4024354,
              "geocode_score": 90,
              "geocode_type": "high",
              "matched_osm_name": "Halte Ambarrukmo Plaza 2"
            },
            {
              "stop_sequence": 13,
              "stop_name": "Halte Janti Selatan (Bawah Jembatan)",
              "stop_name_normalized": "halte janti selatan bawah jembatan",
              "is_terminal": false,
              "notes": "",
              "lat": -7.7857754,
              "lon": 110.4104435,
              "geocode_score": 80,
              "geocode_type": "high",
              "matched_osm_name": "Halte Janti Selatan"
            },
            {
              "stop_sequence": 14,
              "stop_name": "Halte Janti Utara",
              "stop_name_normalized": "halte janti utara",
              "is_terminal": false,
              "notes": "",
              "lat": -7.7831987,
              "lon": 110.4116398,
              "geocode_score": 100,
              "geocode_type": "exact",
              "matched_osm_name": "Halte Janti Utara"
            },
            {
              "stop_sequence": 15,
              "stop_name": "TPB Manna Kampus",
              "stop_name_normalized": "tpb manna kampus",
              "is_terminal": false,
              "notes": "",
              "lat": -7.7832298,
              "lon": 110.4146778,
              "geocode_score": 100,
              "geocode_type": "exact",
              "matched_osm_name": "TPB Manna Kampus"
            },
            {
              "stop_sequence": 16,
              "stop_name": "Transmart Maguwo",
              "stop_name_normalized": "transmart maguwo",
              "is_terminal": false,
              "notes": "",
              "lat": -7.783239,
              "lon": 110.42017,
              "geocode_score": 90,
              "geocode_type": "high",
              "matched_osm_name": "GMaps"
            },
            {
              "stop_sequence": 17,
              "stop_name": "Kantor Wilayah DJPb",
              "stop_name_normalized": "kantor wilayah djpb",
              "is_terminal": false,
              "notes": "",
              "lat": -7.7832732,
              "lon": 110.4240158,
              "geocode_score": 100,
              "geocode_type": "exact",
              "matched_osm_name": "Kantor Wilayah DJPb"
            },
            {
              "stop_sequence": 18,
              "stop_name": "Halte Jl. Solo Maguwo",
              "stop_name_normalized": "halte jl solo maguwo",
              "is_terminal": false,
              "notes": "",
              "lat": -7.7833639,
              "lon": 110.4310201,
              "geocode_score": 100,
              "geocode_type": "exact",
              "matched_osm_name": "Halte Jl. Solo (Maguwo)"
            },
            {
              "stop_sequence": 19,
              "stop_name": "Halte TJ Bandara Adisucipto",
              "stop_name_normalized": "halte tj bandara adisucipto",
              "is_terminal": false,
              "notes": "",
              "lat": -7.784573,
              "lon": 110.436319,
              "geocode_score": 90,
              "geocode_type": "high",
              "matched_osm_name": "GMaps"
            },
            {
              "stop_sequence": 20,
              "stop_name": "TPB Makam Sorogenen",
              "stop_name_normalized": "tpb makam sorogenen",
              "is_terminal": false,
              "notes": "",
              "lat": -7.7834017,
              "lon": 110.4412769,
              "geocode_score": 100,
              "geocode_type": "exact",
              "matched_osm_name": "TPB Makam Sorogenen"
            },
            {
              "stop_sequence": 21,
              "stop_name": "TPB Jl. Solo KR 1",
              "stop_name_normalized": "tpb jl solo kr 1",
              "is_terminal": false,
              "notes": "",
              "lat": -7.7817561,
              "lon": 110.4505572,
              "geocode_score": 85,
              "geocode_type": "high",
              "matched_osm_name": "Halte Jl. Solo (KR. 1)"
            },
            {
              "stop_sequence": 22,
              "stop_name": "BPD Kalasan",
              "stop_name_normalized": "bpd kalasan",
              "is_terminal": false,
              "notes": "",
              "lat": -7.7785558,
              "lon": 110.4559687,
              "geocode_score": 100,
              "geocode_type": "exact",
              "matched_osm_name": "BPD Kalasan"
            },
            {
              "stop_sequence": 23,
              "stop_name": "TPB Jl. Solo Kalasan",
              "stop_name_normalized": "tpb jl solo kalasan",
              "is_terminal": false,
              "notes": "",
              "lat": -7.7698983,
              "lon": 110.4689741,
              "geocode_score": 85,
              "geocode_type": "high",
              "matched_osm_name": "Halte Jl. Solo (Kalasan)"
            },
            {
              "stop_sequence": 24,
              "stop_name": "TPB Rs. Bhayangkara",
              "stop_name_normalized": "tpb rs bhayangkara",
              "is_terminal": false,
              "notes": "",
              "lat": -7.7667093,
              "lon": 110.4716948,
              "geocode_score": 100,
              "geocode_type": "exact",
              "matched_osm_name": "TPB RS. Bhayangkara"
            },
            {
              "stop_sequence": 25,
              "stop_name": "TPB Edotel Kalasan 1",
              "stop_name_normalized": "tpb edotel kalasan 1",
              "is_terminal": false,
              "notes": "",
              "lat": -7.7568242,
              "lon": 110.4827225,
              "geocode_score": 80,
              "geocode_type": "high",
              "matched_osm_name": "TPB Edotel Kalasan"
            },
            {
              "stop_sequence": 26,
              "stop_name": "Terminal Prambanan",
              "stop_name_normalized": "terminal prambanan",
              "is_terminal": true,
              "notes": "",
              "lat": -7.7556139,
              "lon": 110.4898039,
              "geocode_score": 100,
              "geocode_type": "exact",
              "matched_osm_name": "Terminal Prambanan"
            }
          ]
        }
      ]
    },
    {
      "route_id": "1B",
      "route_name": "Halte Ngabean - Bandara Adi Sutjipto",
      "segment_type": "rapid",
      "directions": [
        {
          "direction_id": "1B_A",
          "arah": "Bandara Adi Sutjipto",
          "jumlah_pemberhentian": null,
          "waktu_perjalanan_mnt": null,
          "stops": [
            {
              "stop_sequence": 1,
              "stop_name": "Halte Ngabean",
              "stop_name_normalized": "halte ngabean",
              "is_terminal": true,
              "notes": "",
              "lat": -7.8036405,
              "lon": 110.3563138,
              "geocode_score": 85,
              "geocode_type": "high",
              "matched_osm_name": "Terminal Ngabean"
            },
            {
              "stop_sequence": 2,
              "stop_name": "Halte KHA Dahlan (Utara)",
              "stop_name_normalized": "halte kha dahlan utara",
              "is_terminal": false,
              "notes": "",
              "lat": -7.8012338,
              "lon": 110.360176,
              "geocode_score": 80,
              "geocode_type": "high",
              "matched_osm_name": "Halte KHA Dahlan 1"
            },
            {
              "stop_sequence": 3,
              "stop_name": "Taman Pintar",
              "stop_name_normalized": "taman pintar",
              "is_terminal": false,
              "notes": "",
              "lat": -7.8015439,
              "lon": 110.3670286,
              "geocode_score": 100,
              "geocode_type": "exact",
              "matched_osm_name": "Taman Pintar"
            },
            {
              "stop_sequence": 4,
              "stop_name": "Pakualaman",
              "stop_name_normalized": "pakualaman",
              "is_terminal": false,
              "notes": "",
              "lat": -7.8016159,
              "lon": 110.3757446,
              "geocode_score": 85,
              "geocode_type": "high",
              "matched_osm_name": "Halte Pakualaman"
            },
            {
              "stop_sequence": 5,
              "stop_name": "Taman Makam Pahlawan (Utara)",
              "stop_name_normalized": "taman makam pahlawan utara",
              "is_terminal": false,
              "notes": "",
              "lat": -7.8018327,
              "lon": 110.3834869,
              "geocode_score": 100,
              "geocode_type": "exact",
              "matched_osm_name": "Taman Makam Pahlawan (Utara)"
            },
            {
              "stop_sequence": 6,
              "stop_name": "Makam Gajah (Utara)",
              "stop_name_normalized": "makam gajah utara",
              "is_terminal": false,
              "notes": "",
              "lat": -7.8019185,
              "lon": 110.3874573,
              "geocode_score": 100,
              "geocode_type": "exact",
              "matched_osm_name": "Makam Gajah (Utara)"
            },
            {
              "stop_sequence": 7,
              "stop_name": "SGM Kusumanegara (Utara)",
              "stop_name_normalized": "sgm kusumanegara utara",
              "is_terminal": false,
              "notes": "",
              "lat": -7.80208,
              "lon": 110.393052,
              "geocode_score": 90,
              "geocode_type": "high",
              "matched_osm_name": "GMaps"
            },
            {
              "stop_sequence": 8,
              "stop_name": "Gedung Juang 45",
              "stop_name_normalized": "gedung juang 45",
              "is_terminal": false,
              "notes": "",
              "lat": -7.8022059,
              "lon": 110.3999483,
              "geocode_score": 85,
              "geocode_type": "high",
              "matched_osm_name": "Halte Gedung Juang 45"
            },
            {
              "stop_sequence": 9,
              "stop_name": "JEC",
              "stop_name_normalized": "jec",
              "is_terminal": false,
              "notes": "",
              "lat": -7.7985345,
              "lon": 110.4029149,
              "geocode_score": 85,
              "geocode_type": "high",
              "matched_osm_name": "Halte JEC"
            },
            {
              "stop_sequence": 10,
              "stop_name": "Blok O",
              "stop_name_normalized": "blok o",
              "is_terminal": false,
              "notes": "",
              "lat": -7.7973318,
              "lon": 110.4098213,
              "geocode_score": 85,
              "geocode_type": "high",
              "matched_osm_name": "TPB Blok O"
            },
            {
              "stop_sequence": 11,
              "stop_name": "Halte Janti Utara",
              "stop_name_normalized": "halte janti utara",
              "is_terminal": false,
              "notes": "",
              "lat": -7.7831987,
              "lon": 110.4116398,
              "geocode_score": 100,
              "geocode_type": "exact",
              "matched_osm_name": "Halte Janti Utara"
            },
            {
              "stop_sequence": 12,
              "stop_name": "TPB Manna Kampus",
              "stop_name_normalized": "tpb manna kampus",
              "is_terminal": false,
              "notes": "",
              "lat": -7.7832298,
              "lon": 110.4146778,
              "geocode_score": 100,
              "geocode_type": "exact",
              "matched_osm_name": "TPB Manna Kampus"
            },
            {
              "stop_sequence": 13,
              "stop_name": "Transmart Maguwo",
              "stop_name_normalized": "transmart maguwo",
              "is_terminal": false,
              "notes": "",
              "lat": -7.783239,
              "lon": 110.42017,
              "geocode_score": 90,
              "geocode_type": "high",
              "matched_osm_name": "GMaps"
            },
            {
              "stop_sequence": 14,
              "stop_name": "Kantor Wilayah DJPb",
              "stop_name_normalized": "kantor wilayah djpb",
              "is_terminal": false,
              "notes": "",
              "lat": -7.7832732,
              "lon": 110.4240158,
              "geocode_score": 100,
              "geocode_type": "exact",
              "matched_osm_name": "Kantor Wilayah DJPb"
            },
            {
              "stop_sequence": 15,
              "stop_name": "Halte Jl. Solo Maguwo",
              "stop_name_normalized": "halte jl solo maguwo",
              "is_terminal": false,
              "notes": "",
              "lat": -7.7833639,
              "lon": 110.4310201,
              "geocode_score": 100,
              "geocode_type": "exact",
              "matched_osm_name": "Halte Jl. Solo (Maguwo)"
            },
            {
              "stop_sequence": 16,
              "stop_name": "Halte TJ Bandara Adisucipto",
              "stop_name_normalized": "halte tj bandara adisucipto",
              "is_terminal": true,
              "notes": "",
              "lat": -7.784573,
              "lon": 110.436319,
              "geocode_score": 90,
              "geocode_type": "high",
              "matched_osm_name": "GMaps"
            }
          ]
        },
        {
          "direction_id": "1B_B",
          "arah": "Halte Ngabean",
          "jumlah_pemberhentian": null,
          "waktu_perjalanan_mnt": null,
          "stops": [
            {
              "stop_sequence": 1,
              "stop_name": "Halte TJ Bandara Adisucipto",
              "stop_name_normalized": "halte tj bandara adisucipto",
              "is_terminal": true,
              "notes": "",
              "lat": -7.784573,
              "lon": 110.436319,
              "geocode_score": 90,
              "geocode_type": "high",
              "matched_osm_name": "GMaps"
            },
            {
              "stop_sequence": 2,
              "stop_name": "Halte Hyundai",
              "stop_name_normalized": "halte hyundai",
              "is_terminal": false,
              "notes": "",
              "lat": -7.7835407,
              "lon": 110.4283314,
              "geocode_score": 85,
              "geocode_type": "high",
              "matched_osm_name": "TPB Hyundai"
            },
            {
              "stop_sequence": 3,
              "stop_name": "Halte Jl. Solo (Jayakarta)",
              "stop_name_normalized": "halte jl solo jayakarta",
              "is_terminal": false,
              "notes": "",
              "lat": -7.7834291,
              "lon": 110.4193845,
              "geocode_score": 100,
              "geocode_type": "exact",
              "matched_osm_name": "Halte Jl. Solo (Jayakarta)"
            },
            {
              "stop_sequence": 4,
              "stop_name": "Halte Janti Utara",
              "stop_name_normalized": "halte janti utara",
              "is_terminal": false,
              "notes": "",
              "lat": -7.7831987,
              "lon": 110.4116398,
              "geocode_score": 100,
              "geocode_type": "exact",
              "matched_osm_name": "Halte Janti Utara"
            },
            {
              "stop_sequence": 5,
              "stop_name": "Halte Mall Sahid J-Walk",
              "stop_name_normalized": "halte mall sahid j-walk",
              "is_terminal": false,
              "notes": "",
              "lat": -7.7795691,
              "lon": 110.4146666,
              "geocode_score": 75,
              "geocode_type": "high",
              "matched_osm_name": "Halte Sahid J-Walk"
            },
            {
              "stop_sequence": 6,
              "stop_name": "TPB Tambak Bayan 1",
              "stop_name_normalized": "tpb tambak bayan 1",
              "is_terminal": false,
              "notes": "",
              "lat": -7.7773333,
              "lon": 110.415109,
              "geocode_score": 100,
              "geocode_type": "exact",
              "matched_osm_name": "TPB Tambak Bayan 1"
            },
            {
              "stop_sequence": 7,
              "stop_name": "TPB Ruko Babarsari",
              "stop_name_normalized": "tpb ruko babarsari",
              "is_terminal": false,
              "notes": "",
              "lat": -7.774003,
              "lon": 110.412216,
              "geocode_score": 90,
              "geocode_type": "high",
              "matched_osm_name": "GMaps"
            },
            {
              "stop_sequence": 8,
              "stop_name": "Kledokan",
              "stop_name_normalized": "kledokan",
              "is_terminal": false,
              "notes": "",
              "lat": -7.778333,
              "lon": 110.408549,
              "geocode_score": 90,
              "geocode_type": "high",
              "matched_osm_name": "GMaps"
            },
            {
              "stop_sequence": 9,
              "stop_name": "Pasar Angkasa (Timur)",
              "stop_name_normalized": "pasar angkasa timur",
              "is_terminal": false,
              "notes": "",
              "lat": -7.7918148,
              "lon": 110.4102776,
              "geocode_score": 100,
              "geocode_type": "exact",
              "matched_osm_name": "Pasar Angkasa (Timur)"
            },
            {
              "stop_sequence": 10,
              "stop_name": "Halte RS dr.S.HARDJOLUKITO",
              "stop_name_normalized": "halte rs dr shardjolukito",
              "is_terminal": false,
              "notes": "",
              "lat": -7.797225,
              "lon": 110.410033,
              "geocode_type": "high",
              "matched_osm_name": ""
            },
            {
              "stop_sequence": 11,
              "stop_name": "Wonocatur",
              "stop_name_normalized": "wonocatur",
              "is_terminal": false,
              "notes": "",
              "lat": -7.7986543,
              "lon": 110.4063971,
              "geocode_score": 85,
              "geocode_type": "high",
              "matched_osm_name": "Halte Wonocatur"
            },
            {
              "stop_sequence": 12,
              "stop_name": "TPB BKPM DIY",
              "stop_name_normalized": "tpb bkpm diy",
              "is_terminal": false,
              "notes": "",
              "lat": -7.800361,
              "lon": 110.4023922,
              "geocode_score": 75,
              "geocode_type": "high",
              "matched_osm_name": "TPB BKPM"
            },
            {
              "stop_sequence": 13,
              "stop_name": "Halte Kusumanegara (Gembira Loka)",
              "stop_name_normalized": "halte kusumanegara gembira loka",
              "is_terminal": false,
              "notes": "",
              "lat": -7.802317,
              "lon": 110.398798,
              "geocode_score": 90,
              "geocode_type": "high",
              "matched_osm_name": "GMaps"
            },
            {
              "stop_sequence": 14,
              "stop_name": "Halte SGM Kusumanegara (Selatan)",
              "stop_name_normalized": "halte sgm kusumanegara selatan",
              "is_terminal": false,
              "notes": "",
              "lat": -7.80221,
              "lon": 110.39334,
              "geocode_score": 90,
              "geocode_type": "high",
              "matched_osm_name": "GMaps"
            },
            {
              "stop_sequence": 15,
              "stop_name": "TPB Makam Gajah (Selatan)",
              "stop_name_normalized": "tpb makam gajah selatan",
              "is_terminal": false,
              "notes": "",
              "lat": -7.8020032,
              "lon": 110.3873325,
              "geocode_score": 90,
              "geocode_type": "high",
              "matched_osm_name": "Makam Gajah (Selatan)"
            },
            {
              "stop_sequence": 16,
              "stop_name": "Taman Makam Pahlawan (Selatan)",
              "stop_name_normalized": "taman makam pahlawan selatan",
              "is_terminal": false,
              "notes": "",
              "lat": -7.8019148,
              "lon": 110.3821978,
              "geocode_score": 100,
              "geocode_type": "exact",
              "matched_osm_name": "Taman Makam Pahlawan (Selatan)"
            },
            {
              "stop_sequence": 17,
              "stop_name": "Pasar Sentul (Selatan)",
              "stop_name_normalized": "pasar sentul selatan",
              "is_terminal": false,
              "notes": "",
              "lat": -7.801749,
              "lon": 110.3767528,
              "geocode_score": 100,
              "geocode_type": "exact",
              "matched_osm_name": "Pasar Sentul (Selatan)"
            },
            {
              "stop_sequence": 18,
              "stop_name": "Museum Biologi",
              "stop_name_normalized": "museum biologi",
              "is_terminal": false,
              "notes": "",
              "lat": -7.8016807,
              "lon": 110.3741539,
              "geocode_score": 85,
              "geocode_type": "high",
              "matched_osm_name": "Halte Museum Biologi"
            },
            {
              "stop_sequence": 19,
              "stop_name": "Suryotomo",
              "stop_name_normalized": "suryotomo",
              "is_terminal": false,
              "notes": "",
              "lat": -7.799255,
              "lon": 110.369278,
              "geocode_score": 90,
              "geocode_type": "high",
              "matched_osm_name": "GMaps"
            },
            {
              "stop_sequence": 20,
              "stop_name": "Progo",
              "stop_name_normalized": "progo",
              "is_terminal": false,
              "notes": "",
              "lat": -7.7980094,
              "lon": 110.3693141,
              "geocode_score": 100,
              "geocode_type": "exact",
              "matched_osm_name": "Progo"
            },
            {
              "stop_sequence": 21,
              "stop_name": "Jl. Mataram Hotel Akur",
              "stop_name_normalized": "jl mataram hotel akur",
              "is_terminal": false,
              "notes": "",
              "lat": -7.794266,
              "lon": 110.368056,
              "geocode_score": 90,
              "geocode_type": "high",
              "matched_osm_name": "GMaps"
            },
            {
              "stop_sequence": 22,
              "stop_name": "Portable Teras Malioboro 2",
              "stop_name_normalized": "portable teras malioboro 2",
              "is_terminal": false,
              "notes": "",
              "lat": -7.7917914,
              "lon": 110.367545,
              "geocode_score": 80,
              "geocode_type": "high",
              "matched_osm_name": "Portabel Teras Malioboro"
            },
            {
              "stop_sequence": 23,
              "stop_name": "Halte Abu Bakar Ali",
              "stop_name_normalized": "halte abu bakar ali",
              "is_terminal": false,
              "notes": "",
              "lat": -7.7900621,
              "lon": 110.3663152,
              "geocode_score": 100,
              "geocode_type": "exact",
              "matched_osm_name": "Halte Abu Bakar Ali"
            },
            {
              "stop_sequence": 24,
              "stop_name": "Abadi Hotel Jogja",
              "stop_name_normalized": "abadi hotel jogja",
              "is_terminal": false,
              "notes": "",
              "lat": -7.790068,
              "lon": 110.3632444,
              "geocode_score": 100,
              "geocode_type": "exact",
              "matched_osm_name": "Abadi Hotel Jogja"
            },
            {
              "stop_sequence": 25,
              "stop_name": "Stasiun Yogyakarta",
              "stop_name_normalized": "stasiun yogyakarta",
              "is_terminal": false,
              "notes": "",
              "lat": -7.789708,
              "lon": 110.3617734,
              "geocode_score": 100,
              "geocode_type": "exact",
              "matched_osm_name": "Stasiun Yogyakarta"
            },
            {
              "stop_sequence": 26,
              "stop_name": "Jlagran",
              "stop_name_normalized": "jlagran",
              "is_terminal": false,
              "notes": "",
              "lat": -7.7894975,
              "lon": 110.3588625,
              "geocode_score": 100,
              "geocode_type": "exact",
              "matched_osm_name": "Jlagran"
            },
            {
              "stop_sequence": 27,
              "stop_name": "Letjen Suprapto",
              "stop_name_normalized": "letjen suprapto",
              "is_terminal": false,
              "notes": "",
              "lat": -7.7908782,
              "lon": 110.3575037,
              "geocode_score": 100,
              "geocode_type": "exact",
              "matched_osm_name": "Letjen Suprapto"
            },
            {
              "stop_sequence": 28,
              "stop_name": "SDN Gedong Tengen",
              "stop_name_normalized": "sdn gedong tengen",
              "is_terminal": false,
              "notes": "",
              "lat": -7.792631,
              "lon": 110.356965,
              "geocode_score": 90,
              "geocode_type": "high",
              "matched_osm_name": "GMaps"
            },
            {
              "stop_sequence": 29,
              "stop_name": "KS Tubun",
              "stop_name_normalized": "ks tubun",
              "is_terminal": false,
              "notes": "",
              "lat": -7.797859,
              "lon": 110.356524,
              "geocode_score": 100,
              "geocode_type": "exact",
              "matched_osm_name": "KS Tubun"
            },
            {
              "stop_sequence": 30,
              "stop_name": "Halte Ngabean",
              "stop_name_normalized": "halte ngabean",
              "is_terminal": true,
              "notes": "",
              "lat": -7.8036405,
              "lon": 110.3563138,
              "geocode_score": 85,
              "geocode_type": "high",
              "matched_osm_name": "Terminal Ngabean"
            }
          ]
        }
      ]
    },
    {
      "route_id": "2A",
      "route_name": "Terminal Condong Catur - Halte Malioboro 3",
      "segment_type": "rapid",
      "directions": [
        {
          "direction_id": "2A_A",
          "arah": "Halte Malioboro 3",
          "jumlah_pemberhentian": null,
          "waktu_perjalanan_mnt": null,
          "stops": [
            {
              "stop_sequence": 1,
              "stop_name": "Terminal Condong Catur",
              "stop_name_normalized": "terminal condong catur",
              "is_terminal": true,
              "notes": "",
              "lat": -7.756691,
              "lon": 110.395817,
              "geocode_score": 100,
              "geocode_type": "exact",
              "matched_osm_name": "Terminal Condong Catur"
            },
            {
              "stop_sequence": 2,
              "stop_name": "TPB RRU Manggung",
              "stop_name_normalized": "tpb rru manggung",
              "is_terminal": false,
              "notes": "",
              "lat": -7.7581236,
              "lon": 110.3863762,
              "geocode_score": 100,
              "geocode_type": "exact",
              "matched_osm_name": "TPB RRU Manggung"
            },
            {
              "stop_sequence": 3,
              "stop_name": "Monjali (Selatan)",
              "stop_name_normalized": "monjali selatan",
              "is_terminal": false,
              "notes": "",
              "lat": -7.750864,
              "lon": 110.368762,
              "geocode_score": 90,
              "geocode_type": "high",
              "matched_osm_name": "GMaps"
            },
            {
              "stop_sequence": 4,
              "stop_name": "Terminal Jombor",
              "stop_name_normalized": "terminal jombor",
              "is_terminal": false,
              "notes": "",
              "lat": -7.7474189,
              "lon": 110.3614517,
              "geocode_score": 100,
              "geocode_type": "exact",
              "matched_osm_name": "Terminal Jombor"
            },
            {
              "stop_sequence": 5,
              "stop_name": "Monjali (Utara)",
              "stop_name_normalized": "monjali utara",
              "is_terminal": false,
              "notes": "",
              "lat": -7.750488,
              "lon": 110.367667,
              "geocode_score": 90,
              "geocode_type": "high",
              "matched_osm_name": "GMaps"
            },
            {
              "stop_sequence": 6,
              "stop_name": "PDAM Monjali",
              "stop_name_normalized": "pdam monjali",
              "is_terminal": false,
              "notes": "",
              "lat": -7.7559716,
              "lon": 110.3699545,
              "geocode_score": 85,
              "geocode_type": "high",
              "matched_osm_name": "TPB PDAM Monjali"
            },
            {
              "stop_sequence": 7,
              "stop_name": "SPBU Monjali (Timur)",
              "stop_name_normalized": "spbu monjali timur",
              "is_terminal": false,
              "notes": "",
              "lat": -7.7601127,
              "lon": 110.3695291,
              "geocode_score": 100,
              "geocode_type": "exact",
              "matched_osm_name": "SPBU Monjali (Timur)"
            },
            {
              "stop_sequence": 8,
              "stop_name": "Karangjati (Timur)",
              "stop_name_normalized": "karangjati timur",
              "is_terminal": false,
              "notes": "",
              "lat": -7.764063,
              "lon": 110.369259,
              "geocode_score": 90,
              "geocode_type": "high",
              "matched_osm_name": "GMaps"
            },
            {
              "stop_sequence": 9,
              "stop_name": "Batas Kota Jl. Monjali Timur",
              "stop_name_normalized": "batas kota jl monjali timur",
              "is_terminal": false,
              "notes": "",
              "lat": -7.7705073,
              "lon": 110.3685425,
              "geocode_score": 100,
              "geocode_type": "exact",
              "matched_osm_name": "Batas Kota Jl. Monjali (Timur)"
            },
            {
              "stop_sequence": 10,
              "stop_name": "Halte A.M. Sangaji (Timur)",
              "stop_name_normalized": "halte am sangaji timur",
              "is_terminal": false,
              "notes": "",
              "lat": -7.7773769,
              "lon": 110.3676522,
              "geocode_score": 80,
              "geocode_type": "high",
              "matched_osm_name": "Halte AM Sangaji 1"
            },
            {
              "stop_sequence": 11,
              "stop_name": "Pasar Kranggan (Timur)",
              "stop_name_normalized": "pasar kranggan timur",
              "is_terminal": false,
              "notes": "",
              "lat": -7.7828255,
              "lon": 110.3656839,
              "geocode_score": 80,
              "geocode_type": "high",
              "matched_osm_name": "Halte Pasar Kranggan"
            },
            {
              "stop_sequence": 12,
              "stop_name": "Halte Mangkubumi 1",
              "stop_name_normalized": "halte mangkubumi 1",
              "is_terminal": false,
              "notes": "",
              "lat": -7.7847283,
              "lon": 110.3668925,
              "geocode_score": 100,
              "geocode_type": "exact",
              "matched_osm_name": "Halte Mangkubumi 1"
            },
            {
              "stop_sequence": 13,
              "stop_name": "Halte Mangkubumi 2",
              "stop_name_normalized": "halte mangkubumi 2",
              "is_terminal": false,
              "notes": "",
              "lat": -7.7876463,
              "lon": 110.3665282,
              "geocode_score": 100,
              "geocode_type": "exact",
              "matched_osm_name": "Halte Mangkubumi 2"
            },
            {
              "stop_sequence": 14,
              "stop_name": "Eks Menara Kopi (Utara)",
              "stop_name_normalized": "eks menara kopi utara",
              "is_terminal": false,
              "notes": "",
              "lat": -7.789203,
              "lon": 110.370122,
              "geocode_score": 90,
              "geocode_type": "high",
              "matched_osm_name": "GMaps"
            },
            {
              "stop_sequence": 15,
              "stop_name": "Halte Kridosono",
              "stop_name_normalized": "halte kridosono",
              "is_terminal": false,
              "notes": "",
              "lat": -7.7872961,
              "lon": 110.3753663,
              "geocode_score": 100,
              "geocode_type": "exact",
              "matched_osm_name": "Halte Kridosono"
            },
            {
              "stop_sequence": 16,
              "stop_name": "Eks Menara Kopi (Selatan)",
              "stop_name_normalized": "eks menara kopi selatan",
              "is_terminal": false,
              "notes": "",
              "lat": -7.789395,
              "lon": 110.370091,
              "geocode_score": 90,
              "geocode_type": "high",
              "matched_osm_name": "GMaps"
            },
            {
              "stop_sequence": 17,
              "stop_name": "Halte Malioboro 1",
              "stop_name_normalized": "halte malioboro 1",
              "is_terminal": false,
              "notes": "",
              "lat": -7.7908065,
              "lon": 110.3661256,
              "geocode_score": 100,
              "geocode_type": "exact",
              "matched_osm_name": "Halte Malioboro 1"
            },
            {
              "stop_sequence": 18,
              "stop_name": "Halte Malioboro 2 (Kepatihan)",
              "stop_name_normalized": "halte malioboro 2 kepatihan",
              "is_terminal": false,
              "notes": "",
              "lat": -7.7951933,
              "lon": 110.3655817,
              "geocode_score": 100,
              "geocode_type": "exact",
              "matched_osm_name": "Halte Malioboro 2 (Kepatihan)"
            },
            {
              "stop_sequence": 19,
              "stop_name": "Halte Malioboro 3",
              "stop_name_normalized": "halte malioboro 3",
              "is_terminal": true,
              "notes": "",
              "lat": -7.7998539,
              "lon": 110.3649844,
              "geocode_score": 100,
              "geocode_type": "exact",
              "matched_osm_name": "Halte Malioboro 3"
            }
          ]
        },
        {
          "direction_id": "2A_B",
          "arah": "Terminal Condong Catur",
          "jumlah_pemberhentian": null,
          "waktu_perjalanan_mnt": null,
          "stops": [
            {
              "stop_sequence": 1,
              "stop_name": "Halte Malioboro 3",
              "stop_name_normalized": "halte malioboro 3",
              "is_terminal": true,
              "notes": "",
              "lat": -7.7998539,
              "lon": 110.3649844,
              "geocode_score": 100,
              "geocode_type": "exact",
              "matched_osm_name": "Halte Malioboro 3"
            },
            {
              "stop_sequence": 2,
              "stop_name": "Taman Pintar",
              "stop_name_normalized": "taman pintar",
              "is_terminal": false,
              "notes": "",
              "lat": -7.8015439,
              "lon": 110.3670286,
              "geocode_score": 100,
              "geocode_type": "exact",
              "matched_osm_name": "Taman Pintar"
            },
            {
              "stop_sequence": 3,
              "stop_name": "Jogjatronik",
              "stop_name_normalized": "jogjatronik",
              "is_terminal": false,
              "notes": "",
              "lat": -7.8059073,
              "lon": 110.3693246,
              "geocode_score": 85,
              "geocode_type": "high",
              "matched_osm_name": "TPB Jogjatronik"
            },
            {
              "stop_sequence": 4,
              "stop_name": "TPB Katamso 1 (Purawisata)",
              "stop_name_normalized": "tpb katamso 1 purawisata",
              "is_terminal": false,
              "notes": "",
              "lat": -7.808768,
              "lon": 110.369151,
              "geocode_score": 90,
              "geocode_type": "high",
              "matched_osm_name": "GMaps"
            },
            {
              "stop_sequence": 5,
              "stop_name": "SDN Kintelan",
              "stop_name_normalized": "sdn kintelan",
              "is_terminal": false,
              "notes": "",
              "lat": -7.8119844,
              "lon": 110.3689024,
              "geocode_score": 100,
              "geocode_type": "exact",
              "matched_osm_name": "SDN Kintelan"
            },
            {
              "stop_sequence": 6,
              "stop_name": "Halte Kol.Sugiono 1 (Pujokusuman)",
              "stop_name_normalized": "halte kol sugiono 1 pujokusuman",
              "is_terminal": false,
              "notes": "",
              "lat": -7.814834,
              "lon": 110.3700735,
              "geocode_score": 100,
              "geocode_type": "exact",
              "matched_osm_name": "Halte Kol.Sugiono 1 (Pujokusuman)"
            },
            {
              "stop_sequence": 7,
              "stop_name": "Eks STIE Kerjasama",
              "stop_name_normalized": "eks stie kerjasama",
              "is_terminal": false,
              "notes": "",
              "lat": -7.8166727,
              "lon": 110.3832473,
              "geocode_score": 100,
              "geocode_type": "exact",
              "matched_osm_name": "Eks STIE Kerjasama"
            },
            {
              "stop_sequence": 8,
              "stop_name": "Halte Rsi Hidayatullah",
              "stop_name_normalized": "halte rsi hidayatullah",
              "is_terminal": false,
              "notes": "",
              "lat": -7.81557,
              "lon": 110.3874807,
              "geocode_score": 100,
              "geocode_type": "exact",
              "matched_osm_name": "Halte RSI Hidayatullah"
            },
            {
              "stop_sequence": 9,
              "stop_name": "TPB Gambiran 2 Jl. Veteran Kota",
              "stop_name_normalized": "tpb gambiran 2 jl veteran kota",
              "is_terminal": false,
              "notes": "",
              "lat": -7.816874,
              "lon": 110.391101,
              "geocode_score": 90,
              "geocode_type": "high",
              "matched_osm_name": "GMaps"
            },
            {
              "stop_sequence": 10,
              "stop_name": "Jl. Perintis Kemerdekaan",
              "stop_name_normalized": "jl perintis kemerdekaan",
              "is_terminal": false,
              "notes": "",
              "lat": -7.8182528,
              "lon": 110.3922962,
              "geocode_score": 100,
              "geocode_type": "exact",
              "matched_osm_name": "Jl. Perintis Kemerdekaan"
            },
            {
              "stop_sequence": 11,
              "stop_name": "Halte Ngeksigondo Diklat Pu",
              "stop_name_normalized": "halte ngeksigondo diklat pu",
              "is_terminal": false,
              "notes": "",
              "lat": -7.8189248,
              "lon": 110.395002,
              "geocode_score": 100,
              "geocode_type": "exact",
              "matched_osm_name": "Halte Ngeksigondo (Diklat PU)"
            },
            {
              "stop_sequence": 12,
              "stop_name": "TPB SMP 9 Kota",
              "stop_name_normalized": "tpb smp 9 kota",
              "is_terminal": false,
              "notes": "",
              "lat": -7.8198764,
              "lon": 110.3979945,
              "geocode_score": 90,
              "geocode_type": "high",
              "matched_osm_name": "TPB SMP 9 Basen"
            },
            {
              "stop_sequence": 13,
              "stop_name": "Halte Gedong Kuning",
              "stop_name_normalized": "halte gedong kuning",
              "is_terminal": false,
              "notes": "",
              "lat": -7.8196075,
              "lon": 110.4010898,
              "geocode_score": 100,
              "geocode_type": "exact",
              "matched_osm_name": "Halte Gedong Kuning"
            },
            {
              "stop_sequence": 14,
              "stop_name": "TPB Pilar 1 Gedong Kuning Kota",
              "stop_name_normalized": "tpb pilar 1 gedong kuning kota",
              "is_terminal": false,
              "notes": "",
              "lat": -7.8134425,
              "lon": 110.4020227,
              "geocode_score": 100,
              "geocode_type": "exact",
              "matched_osm_name": "TPB Pilar 1 Gedong Kuning Kota"
            },
            {
              "stop_sequence": 15,
              "stop_name": "TPB Banguntapan 1 Gedong Kuning",
              "stop_name_normalized": "tpb banguntapan 1 gedong kuning",
              "is_terminal": false,
              "notes": "",
              "lat": -7.808001,
              "lon": 110.4021007,
              "geocode_score": 100,
              "geocode_type": "exact",
              "matched_osm_name": "TPB Banguntapan 1 Gedong Kuning"
            },
            {
              "stop_sequence": 16,
              "stop_name": "Gembira Loka",
              "stop_name_normalized": "gembira loka",
              "is_terminal": false,
              "notes": "",
              "lat": -7.8022993,
              "lon": 110.3987568,
              "geocode_score": 85,
              "geocode_type": "high",
              "matched_osm_name": "Halte Gembira Loka"
            },
            {
              "stop_sequence": 17,
              "stop_name": "SGM Kusumanegara (Selatan)",
              "stop_name_normalized": "sgm kusumanegara selatan",
              "is_terminal": false,
              "notes": "",
              "lat": -7.80221,
              "lon": 110.39334,
              "geocode_score": 90,
              "geocode_type": "high",
              "matched_osm_name": "GMaps"
            },
            {
              "stop_sequence": 18,
              "stop_name": "Makam Gajah (Selatan)",
              "stop_name_normalized": "makam gajah selatan",
              "is_terminal": false,
              "notes": "",
              "lat": -7.8020032,
              "lon": 110.3873325,
              "geocode_score": 100,
              "geocode_type": "exact",
              "matched_osm_name": "Makam Gajah (Selatan)"
            },
            {
              "stop_sequence": 19,
              "stop_name": "KPPN (Jl. Cendana)",
              "stop_name_normalized": "kppn jl cendana",
              "is_terminal": false,
              "notes": "",
              "lat": -7.8011829,
              "lon": 110.3842807,
              "geocode_score": 100,
              "geocode_type": "exact",
              "matched_osm_name": "KPPN (Jl. Cendana)"
            },
            {
              "stop_sequence": 20,
              "stop_name": "TPB GOR Among Rogo",
              "stop_name_normalized": "tpb gor among rogo",
              "is_terminal": false,
              "notes": "",
              "lat": -7.7984716,
              "lon": 110.3848821,
              "geocode_score": 90,
              "geocode_type": "high",
              "matched_osm_name": "TPB Among Rogo Kota 1"
            },
            {
              "stop_sequence": 21,
              "stop_name": "Halte Kenari 1",
              "stop_name_normalized": "halte kenari 1",
              "is_terminal": false,
              "notes": "",
              "lat": -7.7975166,
              "lon": 110.3831888,
              "geocode_score": 85,
              "geocode_type": "high",
              "matched_osm_name": "Halte TJ Kenari 1"
            },
            {
              "stop_sequence": 22,
              "stop_name": "SMP Kanisius Gayam (Barat)",
              "stop_name_normalized": "smp kanisius gayam barat",
              "is_terminal": false,
              "notes": "",
              "lat": -7.795785,
              "lon": 110.377732,
              "geocode_score": 90,
              "geocode_type": "high",
              "matched_osm_name": "GMaps"
            },
            {
              "stop_sequence": 23,
              "stop_name": "TPB Eks Bioskop Mataram",
              "stop_name_normalized": "tpb eks bioskop mataram",
              "is_terminal": false,
              "notes": "",
              "lat": -7.7922978,
              "lon": 110.3778578,
              "geocode_score": 100,
              "geocode_type": "exact",
              "matched_osm_name": "TPB Eks. Bioskop Mataram"
            },
            {
              "stop_sequence": 24,
              "stop_name": "Halte Kridosono",
              "stop_name_normalized": "halte kridosono",
              "is_terminal": false,
              "notes": "",
              "lat": -7.7872961,
              "lon": 110.3753663,
              "geocode_score": 100,
              "geocode_type": "exact",
              "matched_osm_name": "Halte Kridosono"
            },
            {
              "stop_sequence": 25,
              "stop_name": "UKDW",
              "stop_name_normalized": "ukdw",
              "is_terminal": false,
              "notes": "",
              "lat": -7.7860013,
              "lon": 110.3787573,
              "geocode_score": 100,
              "geocode_type": "exact",
              "matched_osm_name": "UKDW"
            },
            {
              "stop_sequence": 26,
              "stop_name": "Halte RS Bethesda",
              "stop_name_normalized": "halte rs bethesda",
              "is_terminal": false,
              "notes": "",
              "lat": -7.78302,
              "lon": 110.377961,
              "geocode_score": 90,
              "geocode_type": "high",
              "matched_osm_name": "GMaps"
            },
            {
              "stop_sequence": 27,
              "stop_name": "Halte TJ Cik Di Tiro 2",
              "stop_name_normalized": "halte tj cik di tiro 2",
              "is_terminal": false,
              "notes": "",
              "lat": -7.7811809,
              "lon": 110.3751699,
              "geocode_score": 85,
              "geocode_type": "high",
              "matched_osm_name": "Halte Cik Di Tiro 2"
            },
            {
              "stop_sequence": 28,
              "stop_name": "TPB SMPN 1 Yogyakarta",
              "stop_name_normalized": "tpb smpn 1 yogyakarta",
              "is_terminal": false,
              "notes": "",
              "lat": -7.7775519,
              "lon": 110.3757446,
              "geocode_score": 100,
              "geocode_type": "exact",
              "matched_osm_name": "TPB SMPN 1 Yogyakarta"
            },
            {
              "stop_sequence": 29,
              "stop_name": "Halte TJ Colombo (Kosudgama)",
              "stop_name_normalized": "halte tj colombo kosudgama",
              "is_terminal": false,
              "notes": "",
              "lat": -7.7761511,
              "lon": 110.378644,
              "geocode_score": 75,
              "geocode_type": "high",
              "matched_osm_name": "Halte Kosudgama"
            },
            {
              "stop_sequence": 30,
              "stop_name": "TPB Jl. Colombo (UNY)",
              "stop_name_normalized": "tpb jl colombo uny",
              "is_terminal": false,
              "notes": "",
              "lat": -7.7777162,
              "lon": 110.3867004,
              "geocode_score": 85,
              "geocode_type": "high",
              "matched_osm_name": "Halte Jl. Colombo (UNY)"
            },
            {
              "stop_sequence": 31,
              "stop_name": "Plaza UNY",
              "stop_name_normalized": "plaza uny",
              "is_terminal": false,
              "notes": "",
              "lat": -7.775136,
              "lon": 110.389117,
              "geocode_score": 90,
              "geocode_type": "high",
              "matched_osm_name": "GMaps"
            },
            {
              "stop_sequence": 32,
              "stop_name": "Halte Santren",
              "stop_name_normalized": "halte santren",
              "is_terminal": false,
              "notes": "",
              "lat": -7.7663718,
              "lon": 110.3919055,
              "geocode_score": 90,
              "geocode_type": "high",
              "matched_osm_name": "Santren"
            },
            {
              "stop_sequence": 33,
              "stop_name": "Halte Prayan (Barat)",
              "stop_name_normalized": "halte prayan barat",
              "is_terminal": false,
              "notes": "",
              "lat": -7.7634671,
              "lon": 110.393494,
              "geocode_score": 80,
              "geocode_type": "high",
              "matched_osm_name": "Halte Prayan 2"
            },
            {
              "stop_sequence": 34,
              "stop_name": "SPBU Condongcatur (Barat)",
              "stop_name_normalized": "spbu condongcatur barat",
              "is_terminal": false,
              "notes": "",
              "lat": -7.7596803,
              "lon": 110.3952117,
              "geocode_score": 85,
              "geocode_type": "high",
              "matched_osm_name": "SPBU Condongcatur"
            },
            {
              "stop_sequence": 35,
              "stop_name": "Terminal Condong Catur",
              "stop_name_normalized": "terminal condong catur",
              "is_terminal": true,
              "notes": "",
              "lat": -7.756691,
              "lon": 110.395817,
              "geocode_score": 100,
              "geocode_type": "exact",
              "matched_osm_name": "Terminal Condong Catur"
            }
          ]
        }
      ]
    },
    {
      "route_id": "2B",
      "route_name": "Condong Catur - Halte Ngabean",
      "segment_type": "rapid",
      "directions": [
        {
          "direction_id": "2B_A",
          "arah": "Halte Ngabean",
          "jumlah_pemberhentian": null,
          "waktu_perjalanan_mnt": null,
          "stops": [
            {
              "stop_sequence": 1,
              "stop_name": "Terminal Condong Catur",
              "stop_name_normalized": "terminal condong catur",
              "is_terminal": true,
              "notes": "",
              "lat": -7.756691,
              "lon": 110.395817,
              "geocode_score": 100,
              "geocode_type": "exact",
              "matched_osm_name": "Terminal Condong Catur"
            },
            {
              "stop_sequence": 2,
              "stop_name": "SPBU Condongcatur (Timur)",
              "stop_name_normalized": "spbu condongcatur timur",
              "is_terminal": false,
              "notes": "",
              "lat": -7.7596803,
              "lon": 110.3952117,
              "geocode_score": 85,
              "geocode_type": "high",
              "matched_osm_name": "SPBU Condongcatur"
            },
            {
              "stop_sequence": 3,
              "stop_name": "Halte Prayan (Timur)",
              "stop_name_normalized": "halte prayan timur",
              "is_terminal": false,
              "notes": "",
              "lat": -7.7634671,
              "lon": 110.393494,
              "geocode_score": 80,
              "geocode_type": "high",
              "matched_osm_name": "Halte Prayan 2"
            },
            {
              "stop_sequence": 4,
              "stop_name": "TPB Susteran Novisiat",
              "stop_name_normalized": "tpb susteran novisiat",
              "is_terminal": false,
              "notes": "",
              "lat": -7.7658987,
              "lon": 110.3923342,
              "geocode_score": 90,
              "geocode_type": "high",
              "matched_osm_name": "Susteran Novisiat"
            },
            {
              "stop_sequence": 5,
              "stop_name": "Halte Sanata Dharma",
              "stop_name_normalized": "halte sanata dharma",
              "is_terminal": false,
              "notes": "",
              "lat": -7.775085,
              "lon": 110.38929,
              "geocode_score": 90,
              "geocode_type": "high",
              "matched_osm_name": "GMaps"
            },
            {
              "stop_sequence": 6,
              "stop_name": "JL Colombo (Samirono)",
              "stop_name_normalized": "jl colombo samirono",
              "is_terminal": false,
              "notes": "",
              "lat": -7.777689,
              "lon": 110.3875199,
              "geocode_score": 85,
              "geocode_type": "high",
              "matched_osm_name": "Halte Jl. Colombo (Samirono)"
            },
            {
              "stop_sequence": 7,
              "stop_name": "JL Colombo (Panti Rapih)",
              "stop_name_normalized": "jl colombo panti rapih",
              "is_terminal": false,
              "notes": "",
              "lat": -7.776236,
              "lon": 110.3781909,
              "geocode_score": 85,
              "geocode_type": "high",
              "matched_osm_name": "Halte Jl. Colombo (Panti Rapih)"
            },
            {
              "stop_sequence": 8,
              "stop_name": "TPB Panti Rapih",
              "stop_name_normalized": "tpb panti rapih",
              "is_terminal": false,
              "notes": "",
              "lat": -7.7778813,
              "lon": 110.3758664,
              "geocode_score": 100,
              "geocode_type": "exact",
              "matched_osm_name": "TPB Panti Rapih"
            },
            {
              "stop_sequence": 9,
              "stop_name": "Halte Cik Di Tiro 1",
              "stop_name_normalized": "halte cik di tiro 1",
              "is_terminal": false,
              "notes": "",
              "lat": -7.7823459,
              "lon": 110.3751305,
              "geocode_score": 100,
              "geocode_type": "exact",
              "matched_osm_name": "Halte Cik Di Tiro 1"
            },
            {
              "stop_sequence": 10,
              "stop_name": "Halte Bulog",
              "stop_name_normalized": "halte bulog",
              "is_terminal": false,
              "notes": "",
              "lat": -7.784968,
              "lon": 110.3747275,
              "geocode_score": 100,
              "geocode_type": "exact",
              "matched_osm_name": "Halte Bulog"
            },
            {
              "stop_sequence": 11,
              "stop_name": "Halte Kridosono",
              "stop_name_normalized": "halte kridosono",
              "is_terminal": false,
              "notes": "",
              "lat": -7.7872961,
              "lon": 110.3753663,
              "geocode_score": 100,
              "geocode_type": "exact",
              "matched_osm_name": "Halte Kridosono"
            },
            {
              "stop_sequence": 12,
              "stop_name": "Lempuyangan Gudang (Utara)",
              "stop_name_normalized": "lempuyangan gudang utara",
              "is_terminal": false,
              "notes": "",
              "lat": -7.7904021,
              "lon": 110.3736493,
              "geocode_score": 85,
              "geocode_type": "high",
              "matched_osm_name": "Halte Lempuyangan Gudang (Utara)"
            },
            {
              "stop_sequence": 13,
              "stop_name": "Stasiun Lempuyangan",
              "stop_name_normalized": "stasiun lempuyangan",
              "is_terminal": false,
              "notes": "",
              "lat": -7.7902171,
              "lon": 110.3774025,
              "geocode_score": 85,
              "geocode_type": "high",
              "matched_osm_name": "Halte Stasiun Lempuyangan"
            },
            {
              "stop_sequence": 14,
              "stop_name": "TPB SMP Kanisius Gayam (Timur)",
              "stop_name_normalized": "tpb smp kanisius gayam timur",
              "is_terminal": false,
              "notes": "",
              "lat": -7.79573,
              "lon": 110.377822,
              "geocode_score": 90,
              "geocode_type": "high",
              "matched_osm_name": "GMaps"
            },
            {
              "stop_sequence": 15,
              "stop_name": "Halte TJ Kenari 2",
              "stop_name_normalized": "halte tj kenari 2",
              "is_terminal": false,
              "notes": "",
              "lat": -7.7974569,
              "lon": 110.3833812,
              "geocode_score": 100,
              "geocode_type": "exact",
              "matched_osm_name": "Halte TJ Kenari 2"
            },
            {
              "stop_sequence": 16,
              "stop_name": "TPB Among Rogo Kota",
              "stop_name_normalized": "tpb among rogo kota",
              "is_terminal": false,
              "notes": "",
              "lat": -7.7984512,
              "lon": 110.3847932,
              "geocode_score": 85,
              "geocode_type": "high",
              "matched_osm_name": "TPB Among Rogo Kota 2"
            },
            {
              "stop_sequence": 17,
              "stop_name": "Makam Gajah (Utara)",
              "stop_name_normalized": "makam gajah utara",
              "is_terminal": false,
              "notes": "",
              "lat": -7.8019185,
              "lon": 110.3874573,
              "geocode_score": 100,
              "geocode_type": "exact",
              "matched_osm_name": "Makam Gajah (Utara)"
            },
            {
              "stop_sequence": 18,
              "stop_name": "SGM Kusumanegara (Utara)",
              "stop_name_normalized": "sgm kusumanegara utara",
              "is_terminal": false,
              "notes": "",
              "lat": -7.80208,
              "lon": 110.393052,
              "geocode_score": 90,
              "geocode_type": "high",
              "matched_osm_name": "GMaps"
            },
            {
              "stop_sequence": 19,
              "stop_name": "Gedung Juang 45",
              "stop_name_normalized": "gedung juang 45",
              "is_terminal": false,
              "notes": "",
              "lat": -7.8022059,
              "lon": 110.3999483,
              "geocode_score": 85,
              "geocode_type": "high",
              "matched_osm_name": "Halte Gedung Juang 45"
            },
            {
              "stop_sequence": 20,
              "stop_name": "Gedong Kuning Banguntapan",
              "stop_name_normalized": "gedong kuning banguntapan",
              "is_terminal": false,
              "notes": "",
              "lat": -7.807301,
              "lon": 110.4022485,
              "geocode_score": 85,
              "geocode_type": "high",
              "matched_osm_name": "Halte Gedong Kuning Banguntapan"
            },
            {
              "stop_sequence": 21,
              "stop_name": "TPB Poltekkes BSI",
              "stop_name_normalized": "tpb poltekkes bsi",
              "is_terminal": false,
              "notes": "",
              "lat": -7.8143777,
              "lon": 110.4021542,
              "geocode_score": 100,
              "geocode_type": "exact",
              "matched_osm_name": "TPB Poltekkes BSI"
            },
            {
              "stop_sequence": 22,
              "stop_name": "TPB Kehutanan Gedongkuning",
              "stop_name_normalized": "tpb kehutanan gedongkuning",
              "is_terminal": false,
              "notes": "",
              "lat": -7.8181316,
              "lon": 110.4018237,
              "geocode_score": 100,
              "geocode_type": "exact",
              "matched_osm_name": "TPB Kehutanan Gedongkuning"
            },
            {
              "stop_sequence": 23,
              "stop_name": "TPB SMP 9 Basen",
              "stop_name_normalized": "tpb smp 9 basen",
              "is_terminal": false,
              "notes": "",
              "lat": -7.8196954,
              "lon": 110.3978394,
              "geocode_score": 100,
              "geocode_type": "exact",
              "matched_osm_name": "TPB SMP 9 Basen"
            },
            {
              "stop_sequence": 24,
              "stop_name": "Halte Ngeksigondo Basen",
              "stop_name_normalized": "halte ngeksigondo basen",
              "is_terminal": false,
              "notes": "",
              "lat": -7.8191226,
              "lon": 110.3949581,
              "geocode_score": 100,
              "geocode_type": "exact",
              "matched_osm_name": "Halte Ngeksigondo Basen"
            },
            {
              "stop_sequence": 25,
              "stop_name": "Jl. Perintis Kemerdekaan (Selatan)",
              "stop_name_normalized": "jl perintis kemerdekaan selatan",
              "is_terminal": false,
              "notes": "",
              "lat": -7.8182528,
              "lon": 110.3922962,
              "geocode_score": 85,
              "geocode_type": "high",
              "matched_osm_name": "Jl. Perintis Kemerdekaan"
            },
            {
              "stop_sequence": 26,
              "stop_name": "TPB Gambiran 1",
              "stop_name_normalized": "tpb gambiran 1",
              "is_terminal": false,
              "notes": "",
              "lat": -7.8170033,
              "lon": 110.3908791,
              "geocode_score": 100,
              "geocode_type": "exact",
              "matched_osm_name": "TPB Gambiran 1"
            },
            {
              "stop_sequence": 27,
              "stop_name": "TPB Jl. Veteran",
              "stop_name_normalized": "tpb jl veteran",
              "is_terminal": false,
              "notes": "",
              "lat": -7.8152264,
              "lon": 110.3891431,
              "geocode_score": 100,
              "geocode_type": "exact",
              "matched_osm_name": "TPB Jl. Veteran"
            },
            {
              "stop_sequence": 28,
              "stop_name": "Halte PSKY",
              "stop_name_normalized": "halte psky",
              "is_terminal": false,
              "notes": "",
              "lat": -7.8162379,
              "lon": 110.3859353,
              "geocode_score": 100,
              "geocode_type": "exact",
              "matched_osm_name": "Halte PSKY"
            },
            {
              "stop_sequence": 29,
              "stop_name": "TPB Pasar Sepeda Tunjungsari",
              "stop_name_normalized": "tpb pasar sepeda tunjungsari",
              "is_terminal": false,
              "notes": "",
              "lat": -7.81642,
              "lon": 110.380407,
              "geocode_score": 90,
              "geocode_type": "high",
              "matched_osm_name": "GMaps"
            },
            {
              "stop_sequence": 30,
              "stop_name": "Halte Sugiono 2",
              "stop_name_normalized": "halte sugiono 2",
              "is_terminal": false,
              "notes": "",
              "lat": -7.815156,
              "lon": 110.3717523,
              "geocode_score": 100,
              "geocode_type": "exact",
              "matched_osm_name": "Halte Sugiono 2"
            },
            {
              "stop_sequence": 31,
              "stop_name": "TPB Purawisata",
              "stop_name_normalized": "tpb purawisata",
              "is_terminal": false,
              "notes": "",
              "lat": -7.8081764,
              "lon": 110.3690784,
              "geocode_score": 100,
              "geocode_type": "exact",
              "matched_osm_name": "TPB Purawisata"
            },
            {
              "stop_sequence": 32,
              "stop_name": "Halte Katamso 2",
              "stop_name_normalized": "halte katamso 2",
              "is_terminal": false,
              "notes": "",
              "lat": -7.8026975,
              "lon": 110.369163,
              "geocode_score": 100,
              "geocode_type": "exact",
              "matched_osm_name": "Halte Katamso 2"
            },
            {
              "stop_sequence": 33,
              "stop_name": "Senopati",
              "stop_name_normalized": "senopati",
              "is_terminal": false,
              "notes": "",
              "lat": -7.8015439,
              "lon": 110.3670286,
              "geocode_score": 85,
              "geocode_type": "high",
              "matched_osm_name": "Halte Senopati 1"
            },
            {
              "stop_sequence": 34,
              "stop_name": "Halte KHA Dahlan (Selatan)",
              "stop_name_normalized": "halte kha dahlan selatan",
              "is_terminal": false,
              "notes": "",
              "lat": -7.8012338,
              "lon": 110.360176,
              "geocode_score": 80,
              "geocode_type": "high",
              "matched_osm_name": "Halte KHA Dahlan 1"
            },
            {
              "stop_sequence": 35,
              "stop_name": "Halte Ngabean",
              "stop_name_normalized": "halte ngabean",
              "is_terminal": false,
              "notes": "",
              "lat": -7.8036405,
              "lon": 110.3563138,
              "geocode_score": 85,
              "geocode_type": "high",
              "matched_osm_name": "Terminal Ngabean"
            },
            {
              "stop_sequence": 36,
              "stop_name": "TPB Pasar Serangan",
              "stop_name_normalized": "tpb pasar serangan",
              "is_terminal": false,
              "notes": "",
              "lat": -7.8010933,
              "lon": 110.3542174,
              "geocode_score": 100,
              "geocode_type": "exact",
              "matched_osm_name": "TPB Pasar Serangan"
            },
            {
              "stop_sequence": 37,
              "stop_name": "Halte Cokroaminoto SMA 1",
              "stop_name_normalized": "halte cokroaminoto sma 1",
              "is_terminal": false,
              "notes": "",
              "lat": -7.7993545,
              "lon": 110.3520726,
              "geocode_score": 100,
              "geocode_type": "exact",
              "matched_osm_name": "Halte Cokroaminoto SMA 1"
            },
            {
              "stop_sequence": 38,
              "stop_name": "Halte SMPN 11",
              "stop_name_normalized": "halte smpn 11",
              "is_terminal": false,
              "notes": "",
              "lat": -7.792969,
              "lon": 110.35336,
              "geocode_score": 90,
              "geocode_type": "high",
              "matched_osm_name": "GMaps"
            },
            {
              "stop_sequence": 39,
              "stop_name": "Eks Perpusda",
              "stop_name_normalized": "eks perpusda",
              "is_terminal": false,
              "notes": "",
              "lat": -7.788087,
              "lon": 110.357914,
              "geocode_score": 90,
              "geocode_type": "high",
              "matched_osm_name": "GMaps"
            },
            {
              "stop_sequence": 40,
              "stop_name": "Halte SMP N 14",
              "stop_name_normalized": "halte smp n 14",
              "is_terminal": false,
              "notes": "",
              "lat": -7.7929393,
              "lon": 110.3533421,
              "geocode_score": 80,
              "geocode_type": "high",
              "matched_osm_name": "Halte SMP N 11"
            },
            {
              "stop_sequence": 41,
              "stop_name": "Hotel Utara",
              "stop_name_normalized": "hotel utara",
              "is_terminal": false,
              "notes": "",
              "lat": -7.7803223,
              "lon": 110.3609629,
              "geocode_score": 85,
              "geocode_type": "high",
              "matched_osm_name": "Hotel Utara (Timur)"
            },
            {
              "stop_sequence": 42,
              "stop_name": "Eks Borobudur Plaza",
              "stop_name_normalized": "eks borobudur plaza",
              "is_terminal": false,
              "notes": "",
              "lat": -7.7788263,
              "lon": 110.362072,
              "geocode_score": 85,
              "geocode_type": "high",
              "matched_osm_name": "TPB Eks Borobudur Plaza 2"
            },
            {
              "stop_sequence": 43,
              "stop_name": "SMK N 3",
              "stop_name_normalized": "smk n 3",
              "is_terminal": false,
              "notes": "",
              "lat": -7.777867,
              "lon": 110.366369,
              "geocode_score": 90,
              "geocode_type": "high",
              "matched_osm_name": "GMaps"
            },
            {
              "stop_sequence": 44,
              "stop_name": "AM Sangaji (Barat)",
              "stop_name_normalized": "am sangaji barat",
              "is_terminal": false,
              "notes": "",
              "lat": -7.7773769,
              "lon": 110.3676522,
              "geocode_score": 80,
              "geocode_type": "high",
              "matched_osm_name": "Halte AM Sangaji 1"
            },
            {
              "stop_sequence": 45,
              "stop_name": "Batas Kota Jl. Monjali (Barat)",
              "stop_name_normalized": "batas kota jl monjali barat",
              "is_terminal": false,
              "notes": "",
              "lat": -7.7705556,
              "lon": 110.3684225,
              "geocode_score": 100,
              "geocode_type": "exact",
              "matched_osm_name": "Batas Kota Jl. Monjali (Barat)"
            },
            {
              "stop_sequence": 46,
              "stop_name": "Karangjati (Barat)",
              "stop_name_normalized": "karangjati barat",
              "is_terminal": false,
              "notes": "",
              "lat": -7.764426,
              "lon": 110.369112,
              "geocode_score": 90,
              "geocode_type": "high",
              "matched_osm_name": "GMaps"
            },
            {
              "stop_sequence": 47,
              "stop_name": "SPBU Monjali (Barat)",
              "stop_name_normalized": "spbu monjali barat",
              "is_terminal": false,
              "notes": "",
              "lat": -7.760159,
              "lon": 110.3693929,
              "geocode_score": 100,
              "geocode_type": "exact",
              "matched_osm_name": "SPBU Monjali (Barat)"
            },
            {
              "stop_sequence": 48,
              "stop_name": "PDAM Monjali (Barat)",
              "stop_name_normalized": "pdam monjali barat",
              "is_terminal": false,
              "notes": "",
              "lat": -7.755652,
              "lon": 110.3697905,
              "geocode_score": 100,
              "geocode_type": "exact",
              "matched_osm_name": "PDAM Monjali (Barat)"
            },
            {
              "stop_sequence": 49,
              "stop_name": "Monjali (Selatan)",
              "stop_name_normalized": "monjali selatan",
              "is_terminal": false,
              "notes": "",
              "lat": -7.750864,
              "lon": 110.368762,
              "geocode_score": 90,
              "geocode_type": "high",
              "matched_osm_name": "GMaps"
            },
            {
              "stop_sequence": 50,
              "stop_name": "Terminal Jombor",
              "stop_name_normalized": "terminal jombor",
              "is_terminal": false,
              "notes": "",
              "lat": -7.7474189,
              "lon": 110.3614517,
              "geocode_score": 100,
              "geocode_type": "exact",
              "matched_osm_name": "Terminal Jombor"
            },
            {
              "stop_sequence": 51,
              "stop_name": "Monjali (Utara)",
              "stop_name_normalized": "monjali utara",
              "is_terminal": false,
              "notes": "",
              "lat": -7.750488,
              "lon": 110.367667,
              "geocode_score": 90,
              "geocode_type": "high",
              "matched_osm_name": "GMaps"
            },
            {
              "stop_sequence": 52,
              "stop_name": "Halte TJ RRU Kentungan",
              "stop_name_normalized": "halte tj rru kentungan",
              "is_terminal": false,
              "notes": "",
              "lat": -7.7559619,
              "lon": 110.3846482,
              "geocode_score": 100,
              "geocode_type": "exact",
              "matched_osm_name": "Halte TJ RRU Kentungan"
            },
            {
              "stop_sequence": 53,
              "stop_name": "Terminal Condong Catur",
              "stop_name_normalized": "terminal condong catur",
              "is_terminal": true,
              "notes": "",
              "lat": -7.756691,
              "lon": 110.395817,
              "geocode_score": 100,
              "geocode_type": "exact",
              "matched_osm_name": "Terminal Condong Catur"
            }
          ]
        },
        {
          "direction_id": "2B_B",
          "arah": "Halte Ngabean (via Jombor)",
          "jumlah_pemberhentian": null,
          "waktu_perjalanan_mnt": null,
          "stops": [
            {
              "stop_sequence": 1,
              "stop_name": "Terminal Condong Catur",
              "stop_name_normalized": "terminal condong catur",
              "is_terminal": true,
              "notes": "",
              "lat": -7.756691,
              "lon": 110.395817,
              "geocode_score": 100,
              "geocode_type": "exact",
              "matched_osm_name": "Terminal Condong Catur"
            },
            {
              "stop_sequence": 2,
              "stop_name": "Halte Ngabean",
              "stop_name_normalized": "halte ngabean",
              "is_terminal": true,
              "notes": "",
              "lat": -7.8036405,
              "lon": 110.3563138,
              "geocode_score": 85,
              "geocode_type": "high",
              "matched_osm_name": "Terminal Ngabean"
            }
          ]
        }
      ]
    },
    {
      "route_id": "3A",
      "route_name": "Terminal Condong Catur - Terminal Giwangan",
      "segment_type": "rapid",
      "directions": [
        {
          "direction_id": "3A_A",
          "arah": "Terminal Giwangan",
          "jumlah_pemberhentian": null,
          "waktu_perjalanan_mnt": null,
          "stops": [
            {
              "stop_sequence": 1,
              "stop_name": "Terminal Condong Catur",
              "stop_name_normalized": "terminal condong catur",
              "is_terminal": true,
              "notes": "",
              "lat": -7.756691,
              "lon": 110.395817,
              "geocode_score": 100,
              "geocode_type": "exact",
              "matched_osm_name": "Terminal Condong Catur"
            },
            {
              "stop_sequence": 2,
              "stop_name": "TPB RRU Manggung",
              "stop_name_normalized": "tpb rru manggung",
              "is_terminal": false,
              "notes": "",
              "lat": -7.7581236,
              "lon": 110.3863762,
              "geocode_score": 100,
              "geocode_type": "exact",
              "matched_osm_name": "TPB RRU Manggung"
            },
            {
              "stop_sequence": 3,
              "stop_name": "Hokben Jakal (Timur)",
              "stop_name_normalized": "hokben jakal timur",
              "is_terminal": false,
              "notes": "",
              "lat": -7.7579029,
              "lon": 110.38191,
              "geocode_score": 100,
              "geocode_type": "exact",
              "matched_osm_name": "Hokben Jakal (Timur)"
            },
            {
              "stop_sequence": 4,
              "stop_name": "TPB McD Jakal",
              "stop_name_normalized": "tpb mcd jakal",
              "is_terminal": false,
              "notes": "",
              "lat": -7.762792,
              "lon": 110.379904,
              "geocode_score": 90,
              "geocode_type": "high",
              "matched_osm_name": "GMaps"
            },
            {
              "stop_sequence": 5,
              "stop_name": "Biologi UGM",
              "stop_name_normalized": "biologi ugm",
              "is_terminal": false,
              "notes": "",
              "lat": -7.7652912,
              "lon": 110.377043,
              "geocode_score": 75,
              "geocode_type": "high",
              "matched_osm_name": "TPB Fakultas Biologi UGM"
            },
            {
              "stop_sequence": 6,
              "stop_name": "Halte RS Sardjito (Timur)",
              "stop_name_normalized": "halte rs sardjito timur",
              "is_terminal": false,
              "notes": "",
              "lat": -7.7677712,
              "lon": 110.3743039,
              "geocode_score": 100,
              "geocode_type": "exact",
              "matched_osm_name": "Halte RS Sardjito (Timur)"
            },
            {
              "stop_sequence": 7,
              "stop_name": "FKG UGM (Utara)",
              "stop_name_normalized": "fkg ugm utara",
              "is_terminal": false,
              "notes": "",
              "lat": -7.771368,
              "lon": 110.375187,
              "geocode_score": 90,
              "geocode_type": "high",
              "matched_osm_name": "GMaps"
            },
            {
              "stop_sequence": 8,
              "stop_name": "Halte GIK UGM",
              "stop_name_normalized": "halte gik ugm",
              "is_terminal": false,
              "notes": "",
              "lat": -7.7743048,
              "lon": 110.3751643,
              "geocode_score": 100,
              "geocode_type": "exact",
              "matched_osm_name": "Halte GIK UGM"
            },
            {
              "stop_sequence": 9,
              "stop_name": "TPB Panti Rapih",
              "stop_name_normalized": "tpb panti rapih",
              "is_terminal": false,
              "notes": "",
              "lat": -7.7778813,
              "lon": 110.3758664,
              "geocode_score": 100,
              "geocode_type": "exact",
              "matched_osm_name": "TPB Panti Rapih"
            },
            {
              "stop_sequence": 10,
              "stop_name": "Halte Cik Di Tiro 1",
              "stop_name_normalized": "halte cik di tiro 1",
              "is_terminal": false,
              "notes": "",
              "lat": -7.7823459,
              "lon": 110.3751305,
              "geocode_score": 100,
              "geocode_type": "exact",
              "matched_osm_name": "Halte Cik Di Tiro 1"
            },
            {
              "stop_sequence": 11,
              "stop_name": "Halte Bulog",
              "stop_name_normalized": "halte bulog",
              "is_terminal": false,
              "notes": "",
              "lat": -7.784968,
              "lon": 110.3747275,
              "geocode_score": 100,
              "geocode_type": "exact",
              "matched_osm_name": "Halte Bulog"
            },
            {
              "stop_sequence": 12,
              "stop_name": "Halte Kridosono",
              "stop_name_normalized": "halte kridosono",
              "is_terminal": false,
              "notes": "",
              "lat": -7.7872961,
              "lon": 110.3753663,
              "geocode_score": 100,
              "geocode_type": "exact",
              "matched_osm_name": "Halte Kridosono"
            },
            {
              "stop_sequence": 13,
              "stop_name": "Eks Menara Kopi (Selatan)",
              "stop_name_normalized": "eks menara kopi selatan",
              "is_terminal": false,
              "notes": "",
              "lat": -7.789395,
              "lon": 110.370091,
              "geocode_score": 90,
              "geocode_type": "high",
              "matched_osm_name": "GMaps"
            },
            {
              "stop_sequence": 14,
              "stop_name": "Halte Malioboro 1",
              "stop_name_normalized": "halte malioboro 1",
              "is_terminal": false,
              "notes": "",
              "lat": -7.7908065,
              "lon": 110.3661256,
              "geocode_score": 100,
              "geocode_type": "exact",
              "matched_osm_name": "Halte Malioboro 1"
            },
            {
              "stop_sequence": 15,
              "stop_name": "Halte Malioboro 2 (Kepatihan)",
              "stop_name_normalized": "halte malioboro 2 kepatihan",
              "is_terminal": false,
              "notes": "",
              "lat": -7.7951933,
              "lon": 110.3655817,
              "geocode_score": 100,
              "geocode_type": "exact",
              "matched_osm_name": "Halte Malioboro 2 (Kepatihan)"
            },
            {
              "stop_sequence": 16,
              "stop_name": "Halte Malioboro 3",
              "stop_name_normalized": "halte malioboro 3",
              "is_terminal": false,
              "notes": "",
              "lat": -7.7998539,
              "lon": 110.3649844,
              "geocode_score": 100,
              "geocode_type": "exact",
              "matched_osm_name": "Halte Malioboro 3"
            },
            {
              "stop_sequence": 17,
              "stop_name": "KHA Dahlan (Selatan)",
              "stop_name_normalized": "kha dahlan selatan",
              "is_terminal": false,
              "notes": "",
              "lat": -7.8012338,
              "lon": 110.360176,
              "geocode_score": 80,
              "geocode_type": "high",
              "matched_osm_name": "Halte KHA Dahlan 1"
            },
            {
              "stop_sequence": 18,
              "stop_name": "Halte Ngabean",
              "stop_name_normalized": "halte ngabean",
              "is_terminal": false,
              "notes": "",
              "lat": -7.8036405,
              "lon": 110.3563138,
              "geocode_score": 85,
              "geocode_type": "high",
              "matched_osm_name": "Terminal Ngabean"
            },
            {
              "stop_sequence": 19,
              "stop_name": "Portable Tamansari",
              "stop_name_normalized": "portable tamansari",
              "is_terminal": false,
              "notes": "",
              "lat": -7.8099495,
              "lon": 110.3560481,
              "geocode_score": 100,
              "geocode_type": "exact",
              "matched_osm_name": "Portable Tamansari"
            },
            {
              "stop_sequence": 20,
              "stop_name": "TPB MT Haryono 1 (Jokteng Kulon)",
              "stop_name_normalized": "tpb mt haryono 1 jokteng kulon",
              "is_terminal": false,
              "notes": "",
              "lat": -7.8132167,
              "lon": 110.3572828,
              "geocode_score": 100,
              "geocode_type": "exact",
              "matched_osm_name": "TPB MT Haryono 1 (Jokteng Kulon)"
            },
            {
              "stop_sequence": 21,
              "stop_name": "TPB Jl. Mayjen Sutoyo (Plengkung Gading)",
              "stop_name_normalized": "tpb jl mayjen sutoyo plengkung gading",
              "is_terminal": false,
              "notes": "",
              "lat": -7.8141316,
              "lon": 110.3639611,
              "geocode_score": 100,
              "geocode_type": "exact",
              "matched_osm_name": "TPB Jl. Mayjen Sutoyo (Plengkung Gading)"
            },